<?xml version="1.0" encoding="UTF-8"?>
<kml xmlns="http://www.opengis.net/kml/2.2">
   <Document>
      <Placemark>
         <name>张松林孜</name>
         <Point>
            <coordinates>116.671233,33.582062,0</coordinates>
         </Point>
      </Placemark>
      <Placemark>
         <name>杨高台孜</name>
         <Point>
            <coordinates>116.751111,33.807842,0</coordinates>
         </Point>
      </Placemark>
      <Placemark>
         <name>程松园孜</name>
         <Point>
            <coordinates>116.649747,33.776802,0</coordinates>
         </Point>
      </Placemark>
      <Placemark>
         <name>吴圩孜</name>
         <Point>
            <coordinates>116.58673,33.586243,0</coordinates>
         </Point>
      </Placemark>
      <Placemark>
         <name>张小楼孜</name>
         <Point>
            <coordinates>116.686037,33.843269,0</coordinates>
         </Point>
      </Placemark>
      <Placemark>
         <name>大刘圩孜</name>
         <Point>
            <coordinates>116.547343,33.663781,0</coordinates>
         </Point>
      </Placemark>
      <Placemark>
         <name>新李圩孜</name>
         <Point>
            <coordinates>116.861218,33.629399,0</coordinates>
         </Point>
      </Placemark>
      <Placemark>
         <name>万庄孜</name>
         <Point>
            <coordinates>116.86952,33.820545,0</coordinates>
         </Point>
      </Placemark>
      <Placemark>
         <name>牛圩孜</name>
         <Point>
            <coordinates>116.838862,33.792237,0</coordinates>
         </Point>
      </Placemark>
      <Placemark>
         <name>王圩孜</name>
         <Point>
            <coordinates>116.625773,33.866449,0</coordinates>
         </Point>
      </Placemark>
      <Placemark>
         <name>邱圩孜</name>
         <Point>
            <coordinates>116.715931,33.819291,0</coordinates>
         </Point>
      </Placemark>
      <Placemark>
         <name>张圩孜</name>
         <Point>
            <coordinates>116.715875,33.774215,0</coordinates>
         </Point>
      </Placemark>
      <Placemark>
         <name>杨桥孜</name>
         <Point>
            <coordinates>116.879466,33.71406,0</coordinates>
         </Point>
      </Placemark>
      <Placemark>
         <name>董圩孜</name>
         <Point>
            <coordinates>116.843338,33.675383,0</coordinates>
         </Point>
      </Placemark>
      <Placemark>
         <name>邵圩孜</name>
         <Point>
            <coordinates>116.72162,33.588349,0</coordinates>
         </Point>
      </Placemark>
      <Placemark>
         <name>张圩孜</name>
         <Point>
            <coordinates>116.852623,33.538253,0</coordinates>
         </Point>
      </Placemark>
      <Placemark>
         <name>陆圩孜</name>
         <Point>
            <coordinates>116.811716,33.534032,0</coordinates>
         </Point>
      </Placemark>
      <Placemark>
         <name>袁圩孜</name>
         <Point>
            <coordinates>116.886591,33.514245,0</coordinates>
         </Point>
      </Placemark>
      <Placemark>
         <name>井营孜</name>
         <Point>
            <coordinates>116.564422,33.742351,0</coordinates>
         </Point>
      </Placemark>
      <Placemark>
         <name>赵圩孜</name>
         <Point>
            <coordinates>116.57255,33.640583,0</coordinates>
         </Point>
      </Placemark>
      <Placemark>
         <name>焦圩孜</name>
         <Point>
            <coordinates>116.672325,33.548515,0</coordinates>
         </Point>
      </Placemark>
      <Placemark>
         <name>丁圩孜</name>
         <Point>
            <coordinates>116.753988,34.013395,0</coordinates>
         </Point>
      </Placemark>
      <Placemark>
         <name>石山孜</name>
         <Point>
            <coordinates>116.830062,33.848343,0</coordinates>
         </Point>
      </Placemark>
      <Placemark>
         <name>魏圩孜</name>
         <Point>
            <coordinates>116.854441,33.756521,0</coordinates>
         </Point>
      </Placemark>
      <Placemark>
         <name>陈滩孜</name>
         <Point>
            <coordinates>116.868857,33.753937,0</coordinates>
         </Point>
      </Placemark>
      <Placemark>
         <name>雷圩孜</name>
         <Point>
            <coordinates>116.82689,33.779214,0</coordinates>
         </Point>
      </Placemark>
      <Placemark>
         <name>小阁孜</name>
         <Point>
            <coordinates>116.705288,33.939178,0</coordinates>
         </Point>
      </Placemark>
      <Placemark>
         <name>周圩孜</name>
         <Point>
            <coordinates>116.570041,33.88506,0</coordinates>
         </Point>
      </Placemark>
      <Placemark>
         <name>殷圩孜</name>
         <Point>
            <coordinates>116.643657,33.823094,0</coordinates>
         </Point>
      </Placemark>
      <Placemark>
         <name>任营孜</name>
         <Point>
            <coordinates>116.522716,33.756713,0</coordinates>
         </Point>
      </Placemark>
      <Placemark>
         <name>大庄孜</name>
         <Point>
            <coordinates>116.80716,33.73813,0</coordinates>
         </Point>
      </Placemark>
      <Placemark>
         <name>石圩孜</name>
         <Point>
            <coordinates>116.874797,33.681801,0</coordinates>
         </Point>
      </Placemark>
      <Placemark>
         <name>胡圩孜</name>
         <Point>
            <coordinates>116.783788,33.721654,0</coordinates>
         </Point>
      </Placemark>
      <Placemark>
         <name>周圩孜</name>
         <Point>
            <coordinates>116.836076,33.66043,0</coordinates>
         </Point>
      </Placemark>
      <Placemark>
         <name>肖圩孜</name>
         <Point>
            <coordinates>116.822498,33.661749,0</coordinates>
         </Point>
      </Placemark>
      <Placemark>
         <name>苏圩孜</name>
         <Point>
            <coordinates>116.889223,33.576315,0</coordinates>
         </Point>
      </Placemark>
      <Placemark>
         <name>纪圩孜</name>
         <Point>
            <coordinates>116.774002,33.603197,0</coordinates>
         </Point>
      </Placemark>
      <Placemark>
         <name>罗圩孜</name>
         <Point>
            <coordinates>116.920046,33.56407,0</coordinates>
         </Point>
      </Placemark>
      <Placemark>
         <name>胡圩孜</name>
         <Point>
            <coordinates>116.911462,33.491839,0</coordinates>
         </Point>
      </Placemark>
      <Placemark>
         <name>李圩孜</name>
         <Point>
            <coordinates>116.936447,33.456602,0</coordinates>
         </Point>
      </Placemark>
      <Placemark>
         <name>任圩孜</name>
         <Point>
            <coordinates>116.809581,33.553027,0</coordinates>
         </Point>
      </Placemark>
      <Placemark>
         <name>张圩孜</name>
         <Point>
            <coordinates>116.826851,33.492154,0</coordinates>
         </Point>
      </Placemark>
      <Placemark>
         <name>李圩孜</name>
         <Point>
            <coordinates>116.767698,33.510185,0</coordinates>
         </Point>
      </Placemark>
      <Placemark>
         <name>吕圩孜</name>
         <Point>
            <coordinates>116.692097,33.728148,0</coordinates>
         </Point>
      </Placemark>
      <Placemark>
         <name>梁圩孜</name>
         <Point>
            <coordinates>116.710318,33.67131,0</coordinates>
         </Point>
      </Placemark>
      <Placemark>
         <name>王圩孜</name>
         <Point>
            <coordinates>116.643028,33.697799,0</coordinates>
         </Point>
      </Placemark>
      <Placemark>
         <name>商口孜</name>
         <Point>
            <coordinates>116.662455,33.657217,0</coordinates>
         </Point>
      </Placemark>
      <Placemark>
         <name>谢圩孜</name>
         <Point>
            <coordinates>116.692881,33.589385,0</coordinates>
         </Point>
      </Placemark>
      <Placemark>
         <name>陈圩孜</name>
         <Point>
            <coordinates>116.668496,33.604538,0</coordinates>
         </Point>
      </Placemark>
      <Placemark>
         <name>李圩孜</name>
         <Point>
            <coordinates>116.601427,33.643769,0</coordinates>
         </Point>
      </Placemark>
      <Placemark>
         <name>杨圩孜</name>
         <Point>
            <coordinates>116.61918,33.647289,0</coordinates>
         </Point>
      </Placemark>
      <Placemark>
         <name>中海孜</name>
         <Point>
            <coordinates>116.676731,33.573122,0</coordinates>
         </Point>
      </Placemark>
      <Placemark>
         <name>郭圩孜</name>
         <Point>
            <coordinates>116.692015,33.538936,0</coordinates>
         </Point>
      </Placemark>
      <Placemark>
         <name>孙圩孜</name>
         <Point>
            <coordinates>116.666236,33.549314,0</coordinates>
         </Point>
      </Placemark>
      <Placemark>
         <name>王圩孜</name>
         <Point>
            <coordinates>116.661835,33.529437,0</coordinates>
         </Point>
      </Placemark>
      <Placemark>
         <name>任巷孜</name>
         <Point>
            <coordinates>116.667568,33.528765,0</coordinates>
         </Point>
      </Placemark>
      <Placemark>
         <name>刘圩孜</name>
         <Point>
            <coordinates>116.607665,33.555174,0</coordinates>
         </Point>
      </Placemark>
      <Placemark>
         <name>魏圩孜</name>
         <Point>
            <coordinates>116.545503,33.54139,0</coordinates>
         </Point>
      </Placemark>
      <Placemark>
         <name>张圩孜</name>
         <Point>
            <coordinates>116.614561,33.491484,0</coordinates>
         </Point>
      </Placemark>
      <Placemark>
         <name>曾圩孜</name>
         <Point>
            <coordinates>116.593776,33.487453,0</coordinates>
         </Point>
      </Placemark>
      <Placemark>
         <name>任圩孜</name>
         <Point>
            <coordinates>116.586148,33.501917,0</coordinates>
         </Point>
      </Placemark>
      <Placemark>
         <name>田圩孜</name>
         <Point>
            <coordinates>116.820878,33.790277,0</coordinates>
         </Point>
      </Placemark>
      <Placemark>
         <name>小街孜</name>
         <Point>
            <coordinates>116.708463,33.942866,0</coordinates>
         </Point>
      </Placemark>
      <Placemark>
         <name>土营孜</name>
         <Point>
            <coordinates>116.562577,33.770419,0</coordinates>
         </Point>
      </Placemark>
      <Placemark>
         <name>西店孜</name>
         <Point>
            <coordinates>116.529174,33.868688,0</coordinates>
         </Point>
      </Placemark>
      <Placemark>
         <name>王圩孜</name>
         <Point>
            <coordinates>116.441942,33.814921,0</coordinates>
         </Point>
      </Placemark>
      <Placemark>
         <name>竹园孜</name>
         <Point>
            <coordinates>116.796586,33.724128,0</coordinates>
         </Point>
      </Placemark>
      <Placemark>
         <name>邹圩孜</name>
         <Point>
            <coordinates>116.842792,33.632901,0</coordinates>
         </Point>
      </Placemark>
      <Placemark>
         <name>尤圩孜</name>
         <Point>
            <coordinates>116.849037,33.607997,0</coordinates>
         </Point>
      </Placemark>
      <Placemark>
         <name>沟拐孜</name>
         <Point>
            <coordinates>116.765094,33.658276,0</coordinates>
         </Point>
      </Placemark>
      <Placemark>
         <name>王圩孜</name>
         <Point>
            <coordinates>116.730745,33.579629,0</coordinates>
         </Point>
      </Placemark>
      <Placemark>
         <name>祝圩孜</name>
         <Point>
            <coordinates>116.828128,33.548637,0</coordinates>
         </Point>
      </Placemark>
      <Placemark>
         <name>樊圩孜</name>
         <Point>
            <coordinates>116.840718,33.549101,0</coordinates>
         </Point>
      </Placemark>
      <Placemark>
         <name>王圩孜</name>
         <Point>
            <coordinates>116.803982,33.548744,0</coordinates>
         </Point>
      </Placemark>
      <Placemark>
         <name>刘圩孜</name>
         <Point>
            <coordinates>116.765407,33.504522,0</coordinates>
         </Point>
      </Placemark>
      <Placemark>
         <name>前海孜</name>
         <Point>
            <coordinates>116.620451,33.716565,0</coordinates>
         </Point>
      </Placemark>
      <Placemark>
         <name>周圩孜</name>
         <Point>
            <coordinates>116.629924,33.664975,0</coordinates>
         </Point>
      </Placemark>
      <Placemark>
         <name>沙垄孜</name>
         <Point>
            <coordinates>116.672214,33.651639,0</coordinates>
         </Point>
      </Placemark>
      <Placemark>
         <name>后海孜</name>
         <Point>
            <coordinates>116.680073,33.57449,0</coordinates>
         </Point>
      </Placemark>
      <Placemark>
         <name>郭店孜</name>
         <Point>
            <coordinates>116.522039,33.716609,0</coordinates>
         </Point>
      </Placemark>
      <Placemark>
         <name>沈圩孜</name>
         <Point>
            <coordinates>116.521523,33.701546,0</coordinates>
         </Point>
      </Placemark>
      <Placemark>
         <name>李圩孜</name>
         <Point>
            <coordinates>116.670614,33.52948,0</coordinates>
         </Point>
      </Placemark>
      <Placemark>
         <name>李圩孜</name>
         <Point>
            <coordinates>116.624622,33.523356,0</coordinates>
         </Point>
      </Placemark>
      <Placemark>
         <name>周格圩孜</name>
         <Point>
            <coordinates>116.641138,33.605122,0</coordinates>
         </Point>
      </Placemark>
      <Placemark>
         <name>尖山台孜</name>
         <Point>
            <coordinates>117.002953,33.946152,0</coordinates>
         </Point>
      </Placemark>
      <Placemark>
         <name>中王店孜</name>
         <Point>
            <coordinates>116.741756,34.014595,0</coordinates>
         </Point>
      </Placemark>
      <Placemark>
         <name>郭垄圩孜</name>
         <Point>
            <coordinates>116.731981,33.539071,0</coordinates>
         </Point>
      </Placemark>
      <Placemark>
         <name>张令圩孜</name>
         <Point>
            <coordinates>116.610148,33.666997,0</coordinates>
         </Point>
      </Placemark>
      <Placemark>
         <name>任百禄圩孜</name>
         <Point>
            <coordinates>116.692639,33.508309,0</coordinates>
         </Point>
      </Placemark>
      <Placemark>
         <name>前海孜</name>
         <Point>
            <coordinates>116.619829,33.720681,0</coordinates>
         </Point>
      </Placemark>
      <Placemark>
         <name>小湖孜</name>
         <Point>
            <coordinates>116.617437,33.613151,0</coordinates>
         </Point>
      </Placemark>
   </Document>
</kml>
