<?xml version="1.0" encoding="UTF-8"?>
<kml>
   <Document>
      <name>TS02E05SETTLEMENTS庙</name>
      <Placemark>
         <name>二郎庙陈庄</name>
         <styleUrl>#icon-1739-000000-nodesc</styleUrl>
         <Point>
            <coordinates>
          116.4208317,33.8856649,0
        </coordinates>
         </Point>
      </Placemark>
      <Placemark>
         <name>西王小庙</name>
         <styleUrl>#icon-1739-000000-nodesc</styleUrl>
         <Point>
            <coordinates>
          116.4006615,33.6382753,0
        </coordinates>
         </Point>
      </Placemark>
      <Placemark>
         <name>王小庙村</name>
         <styleUrl>#icon-1739-000000-nodesc</styleUrl>
         <Point>
            <coordinates>
          116.4058971,33.6349167,0
        </coordinates>
         </Point>
      </Placemark>
      <Placemark>
         <name>周庙
</name>
         <styleUrl>#icon-1739-000000-nodesc</styleUrl>
         <Point>
            <coordinates>
          116.5039158,33.7221266,0
        </coordinates>
         </Point>
      </Placemark>
      <Placemark>
         <name>徐庙村</name>
         <styleUrl>#icon-1739-000000-nodesc</styleUrl>
         <Point>
            <coordinates>
          116.4906979,33.7235544,0
        </coordinates>
         </Point>
      </Placemark>
      <Placemark>
         <name>阎王庙</name>
         <styleUrl>#icon-1739-000000-nodesc</styleUrl>
         <Point>
            <coordinates>
          116.4719868,33.7438261,0
        </coordinates>
         </Point>
      </Placemark>
      <Placemark>
         <name>魏庙村
</name>
         <styleUrl>#icon-1739-000000-nodesc</styleUrl>
         <Point>
            <coordinates>
          116.5167046,33.6042543,0
        </coordinates>
         </Point>
      </Placemark>
      <Placemark>
         <name>梁庙</name>
         <styleUrl>#icon-1739-000000-nodesc</styleUrl>
         <Point>
            <coordinates>
          116.5093231,33.6299142,0
        </coordinates>
         </Point>
      </Placemark>
      <Placemark>
         <name>胡庙</name>
         <styleUrl>#icon-1739-000000-nodesc</styleUrl>
         <Point>
            <coordinates>
          116.4470959,33.6819253,0
        </coordinates>
         </Point>
      </Placemark>
      <Placemark>
         <name>梁庙村</name>
         <styleUrl>#icon-1739-000000-nodesc</styleUrl>
         <Point>
            <coordinates>
          116.5168762,33.6267697,0
        </coordinates>
         </Point>
      </Placemark>
      <Placemark>
         <name>李小庙</name>
         <styleUrl>#icon-1739-000000-nodesc</styleUrl>
         <Point>
            <coordinates>
          116.52812,33.6397044,0
        </coordinates>
         </Point>
      </Placemark>
      <Placemark>
         <name>吕庙孜</name>
         <styleUrl>#icon-1739-000000-nodesc</styleUrl>
         <Point>
            <coordinates>
          116.6302586,33.823938,0
        </coordinates>
         </Point>
      </Placemark>
      <Placemark>
         <name>相庙
</name>
         <styleUrl>#icon-1739-000000-nodesc</styleUrl>
         <Point>
            <coordinates>
          116.4573956,33.6902813,0
        </coordinates>
         </Point>
      </Placemark>
      <Placemark>
         <name>白庙孜
</name>
         <styleUrl>#icon-1739-000000-nodesc</styleUrl>
         <Point>
            <coordinates>
          116.5138721,33.6907098,0
        </coordinates>
         </Point>
      </Placemark>
      <Placemark>
         <name>陆庙孜</name>
         <styleUrl>#icon-1739-000000-nodesc</styleUrl>
         <Point>
            <coordinates>
          116.6627884,33.6477073,0
        </coordinates>
         </Point>
      </Placemark>
      <Placemark>
         <name>宋庙村
</name>
         <styleUrl>#icon-1739-000000-nodesc</styleUrl>
         <Point>
            <coordinates>
          116.5593624,33.7829997,0
        </coordinates>
         </Point>
      </Placemark>
      <Placemark>
         <name>庙李家</name>
         <styleUrl>#icon-1739-000000-nodesc</styleUrl>
         <Point>
            <coordinates>
          116.5628815,33.7777918,0
        </coordinates>
         </Point>
      </Placemark>
      <Placemark>
         <name>刘小庙</name>
         <styleUrl>#icon-1739-000000-nodesc</styleUrl>
         <Point>
            <coordinates>
          116.5557575,33.8038279,0
        </coordinates>
         </Point>
      </Placemark>
      <Placemark>
         <name>高皇庙
</name>
         <styleUrl>#icon-1739-000000-nodesc</styleUrl>
         <Point>
            <coordinates>
          116.61026,33.8262197,0
        </coordinates>
         </Point>
      </Placemark>
      <Placemark>
         <name>阎庙
</name>
         <styleUrl>#icon-1739-000000-nodesc</styleUrl>
         <Point>
            <coordinates>
          116.625967,33.756101,0
        </coordinates>
         </Point>
      </Placemark>
      <Placemark>
         <name>庙东</name>
         <styleUrl>#icon-1739-000000-nodesc</styleUrl>
         <Point>
            <coordinates>
          116.4563656,33.7796467,0
        </coordinates>
         </Point>
      </Placemark>
      <Placemark>
         <name>庙西
</name>
         <styleUrl>#icon-1739-000000-nodesc</styleUrl>
         <Point>
            <coordinates>
          116.4526749,33.7787906,0
        </coordinates>
         </Point>
      </Placemark>
      <Placemark>
         <name>朱庙</name>
         <styleUrl>#icon-1739-000000-nodesc</styleUrl>
         <Point>
            <coordinates>
          116.4579105,33.7773638,0
        </coordinates>
         </Point>
      </Placemark>
      <Placemark>
         <name>朱庙村
</name>
         <styleUrl>#icon-1739-000000-nodesc</styleUrl>
         <Point>
            <coordinates>
          116.4573956,33.7751521,0
        </coordinates>
         </Point>
      </Placemark>
      <Placemark>
         <name>段小庙</name>
         <styleUrl>#icon-1739-000000-nodesc</styleUrl>
         <Point>
            <coordinates>
          116.5562725,33.6429914,0
        </coordinates>
         </Point>
      </Placemark>
      <Placemark>
         <name>郭小庙
</name>
         <styleUrl>#icon-1739-000000-nodesc</styleUrl>
         <Point>
            <coordinates>
          116.5797901,33.6398474,0
        </coordinates>
         </Point>
      </Placemark>
      <Placemark>
         <name>赵庙</name>
         <styleUrl>#icon-1739-000000-nodesc</styleUrl>
         <Point>
            <coordinates>
          116.5997887,33.6780685,0
        </coordinates>
         </Point>
      </Placemark>
      <Placemark>
         <name>大王庙
</name>
         <styleUrl>#icon-1739-000000-nodesc</styleUrl>
         <Point>
            <coordinates>
          116.6083717,33.8768292,0
        </coordinates>
         </Point>
      </Placemark>
      <Placemark>
         <name>赵庙</name>
         <styleUrl>#icon-1739-000000-nodesc</styleUrl>
         <Point>
            <coordinates>
          116.5673447,33.89051,0
        </coordinates>
         </Point>
      </Placemark>
      <Placemark>
         <name>刘大庙
</name>
         <styleUrl>#icon-1739-000000-nodesc</styleUrl>
         <Point>
            <coordinates>
          116.5186787,33.8929324,0
        </coordinates>
         </Point>
      </Placemark>
      <Placemark>
         <name>华祖庙</name>
         <styleUrl>#icon-1739-000000-nodesc</styleUrl>
         <Point>
            <coordinates>
          116.5135288,33.8970646,0
        </coordinates>
         </Point>
      </Placemark>
      <Placemark>
         <name>马庙台</name>
         <styleUrl>#icon-1739-000000-nodesc</styleUrl>
         <Point>
            <coordinates>
          116.4997101,33.8491759,0
        </coordinates>
         </Point>
      </Placemark>
      <Placemark>
         <name>庙西张家</name>
         <styleUrl>#icon-1739-000000-nodesc</styleUrl>
         <Point>
            <coordinates>
          116.6780663,33.677497,0
        </coordinates>
         </Point>
      </Placemark>
      <Placemark>
         <name>庙东赵家
</name>
         <styleUrl>#icon-1739-000000-nodesc</styleUrl>
         <Point>
            <coordinates>
          116.6845894,33.6744971,0
        </coordinates>
         </Point>
      </Placemark>
      <Placemark>
         <name>华佗庙</name>
         <styleUrl>#icon-1739-000000-nodesc</styleUrl>
         <Point>
            <coordinates>
          116.5665722,33.6044688,0
        </coordinates>
         </Point>
      </Placemark>
      <Placemark>
         <name>东吴小庙
</name>
         <styleUrl>#icon-1739-000000-nodesc</styleUrl>
         <Point>
            <coordinates>
          116.5972996,33.6140475,0
        </coordinates>
         </Point>
      </Placemark>
      <Placemark>
         <name>西吴小庙
</name>
         <styleUrl>#icon-1739-000000-nodesc</styleUrl>
         <Point>
            <coordinates>
          116.5941238,33.6151196,0
        </coordinates>
         </Point>
      </Placemark>
   </Document>
</kml>
