<?xml version="1.0" encoding="UTF-8"?>
<kml>
    <Document>
        <name>TS02E05SETTLEMENTS圩</name>
        <Placemark>
            <name>李圩村
            </name>
            <styleUrl>#icon-1739-000000-nodesc</styleUrl>
            <Point>
                <coordinates>
                    116.4403152,33.6397044,0
                </coordinates>
            </Point>
        </Placemark>
        <Placemark>
            <name>郭圩</name>
            <styleUrl>#icon-1739-000000-nodesc</styleUrl>
            <Point>
                <coordinates>
                    116.4862776,33.6266982,0
                </coordinates>
            </Point>
        </Placemark>
        <Placemark>
            <name>唐圩孜
            </name>
            <styleUrl>#icon-1739-000000-nodesc</styleUrl>
            <Point>
                <coordinates>
                    116.50177,33.6147622,0
                </coordinates>
            </Point>
        </Placemark>
        <Placemark>
            <name>魏思圩</name>
            <styleUrl>#icon-1739-000000-nodesc</styleUrl>
            <Point>
                <coordinates>
                    116.5312099,33.6035395,0
                </coordinates>
            </Point>
        </Placemark>
        <Placemark>
            <name>赵圩</name>
            <styleUrl>#icon-1739-000000-nodesc</styleUrl>
            <Point>
                <coordinates>
                    116.4768791,33.6529945,0
                </coordinates>
            </Point>
        </Placemark>
        <Placemark>
            <name>李何圩村</name>
            <styleUrl>#icon-1739-000000-nodesc</styleUrl>
            <Point>
                <coordinates>
                    116.5215111,33.6531374,0
                </coordinates>
            </Point>
        </Placemark>
        <Placemark>
            <name>崔圩子</name>
            <styleUrl>#icon-1739-000000-nodesc</styleUrl>
            <Point>
                <coordinates>
                    116.544857,33.639633,0
                </coordinates>
            </Point>
        </Placemark>
        <Placemark>
            <name>大刘圩孜</name>
            <styleUrl>#icon-1739-000000-nodesc</styleUrl>
            <Point>
                <coordinates>
                    116.541338,33.6576384,0
                </coordinates>
            </Point>
        </Placemark>
        <Placemark>
            <name>殷圩孜
            </name>
            <styleUrl>#icon-1739-000000-nodesc</styleUrl>
            <Point>
                <coordinates>
                    116.6382408,33.816736,0
                </coordinates>
            </Point>
        </Placemark>
        <Placemark>
            <name>陈圩孜村</name>
            <styleUrl>#icon-1739-000000-nodesc</styleUrl>
            <Point>
                <coordinates>
                    116.6031361,33.7233402,0
                </coordinates>
            </Point>
        </Placemark>
        <Placemark>
            <name>沈圩孜</name>
            <styleUrl>#icon-1739-000000-nodesc</styleUrl>
            <Point>
                <coordinates>
                    116.5168762,33.6954945,0
                </coordinates>
            </Point>
        </Placemark>
        <Placemark>
            <name>沈圩村</name>
            <styleUrl>#icon-1739-000000-nodesc</styleUrl>
            <Point>
                <coordinates>
                    116.5187645,33.6992078,0
                </coordinates>
            </Point>
        </Placemark>
        <Placemark>
            <name>稻圩</name>
            <styleUrl>#icon-1739-000000-nodesc</styleUrl>
            <Point>
                <coordinates>
                    116.5279484,33.7077049,0
                </coordinates>
            </Point>
        </Placemark>
        <Placemark>
            <name>杨圩孜</name>
            <styleUrl>#icon-1739-000000-nodesc</styleUrl>
            <Point>
                <coordinates>
                    116.6535187,33.6457066,0
                </coordinates>
            </Point>
        </Placemark>
        <Placemark>
            <name>周圩孜村</name>
            <styleUrl>#icon-1739-000000-nodesc</styleUrl>
            <Point>
                <coordinates>
                    116.5461445,33.6799969,0
                </coordinates>
            </Point>
        </Placemark>
        <Placemark>
            <name>赵圩孜</name>
            <styleUrl>#icon-1739-000000-nodesc</styleUrl>
            <Point>
                <coordinates>
                    116.5664864,33.6350596,0
                </coordinates>
            </Point>
        </Placemark>
        <Placemark>
            <name>张令圩孜</name>
            <styleUrl>#icon-1739-000000-nodesc</styleUrl>
            <Point>
                <coordinates>
                    116.6053677,33.6602102,0
                </coordinates>
            </Point>
        </Placemark>
        <Placemark>
            <name>周圩孜</name>
            <styleUrl>#icon-1739-000000-nodesc</styleUrl>
            <Point>
                <coordinates>
                    116.5662289,33.8783969,0
                </coordinates>
            </Point>
        </Placemark>
        <Placemark>
            <name>周圩村
            </name>
            <styleUrl>#icon-1739-000000-nodesc</styleUrl>
            <Point>
                <coordinates>
                    116.5621948,33.8741925,0
                </coordinates>
            </Point>
        </Placemark>
        <Placemark>
            <name>吕圩孜</name>
            <styleUrl>#icon-1739-000000-nodesc</styleUrl>
            <Point>
                <coordinates>
                    116.6869068,33.7215555,0
                </coordinates>
            </Point>
        </Placemark>
        <Placemark>
            <name>李罗圩
            </name>
            <styleUrl>#icon-1739-000000-nodesc</styleUrl>
            <Point>
                <coordinates>
                    116.6142082,33.6131182,0
                </coordinates>
            </Point>
        </Placemark>
        <Placemark>
            <name>周金圩
            </name>
            <styleUrl>#icon-1739-000000-nodesc</styleUrl>
            <Point>
                <coordinates>
                    116.6893959,33.6366317,0
                </coordinates>
            </Point>
        </Placemark>
        <Placemark>
            <name>前陈圩村
            </name>
            <styleUrl>#icon-1739-000000-nodesc</styleUrl>
            <Point>
                <coordinates>
                    116.6877651,33.6520657,0
                </coordinates>
            </Point>
        </Placemark>
        <Placemark>
            <name>后陈圩</name>
            <styleUrl>#icon-1739-000000-nodesc</styleUrl>
            <Point>
                <coordinates>
                    116.6914558,33.6561381,0
                </coordinates>
            </Point>
        </Placemark>
        <Placemark>
            <name>纪圩孜村</name>
            <styleUrl>#icon-1739-000000-nodesc</styleUrl>
            <Point>
                <coordinates>
                    116.6440773,33.6752114,0
                </coordinates>
            </Point>
        </Placemark>
        <Placemark>
            <name>浍北稻圩
            </name>
            <styleUrl>#icon-1739-000000-nodesc</styleUrl>
            <Point>
                <coordinates>
                    116.5847683,33.7034207,0
                </coordinates>
            </Point>
        </Placemark>
        <Placemark>
            <name>王圩孜</name>
            <styleUrl>#icon-1739-000000-nodesc</styleUrl>
            <Point>
                <coordinates>
                    116.6379833,33.691424,0
                </coordinates>
            </Point>
        </Placemark>
        <Placemark>
            <name>稻圩庄</name>
            <styleUrl>#icon-1739-000000-nodesc</styleUrl>
            <Point>
                <coordinates>
                    116.6289711,33.7204133,0
                </coordinates>
            </Point>
        </Placemark>
    </Document>
</kml>
