<?xml version="1.0" encoding="UTF-8"?>
<kml xmlns="http://www.opengis.net/kml/2.2">
   <Document>
      <Placemark>
         <name>双台孜</name>
         <Point>
            <coordinates>116.743251,32.653113,0</coordinates>
         </Point>
      </Placemark>
      <Placemark>
         <name>许庄孜</name>
         <Point>
            <coordinates>116.944562,32.641136,0</coordinates>
         </Point>
      </Placemark>
      <Placemark>
         <name>孟庄孜</name>
         <Point>
            <coordinates>116.489782,32.907129,0</coordinates>
         </Point>
      </Placemark>
      <Placemark>
         <name>蔡老圩孜</name>
         <Point>
            <coordinates>116.869798,32.763509,0</coordinates>
         </Point>
      </Placemark>
      <Placemark>
         <name>苏涂庄孜</name>
         <Point>
            <coordinates>116.784148,32.75126,0</coordinates>
         </Point>
      </Placemark>
      <Placemark>
         <name>杨老圩孜</name>
         <Point>
            <coordinates>116.453519,32.717112,0</coordinates>
         </Point>
      </Placemark>
      <Placemark>
         <name>黄拐湾孜</name>
         <Point>
            <coordinates>116.549667,32.858481,0</coordinates>
         </Point>
      </Placemark>
      <Placemark>
         <name>叶小圩孜</name>
         <Point>
            <coordinates>116.482436,32.737835,0</coordinates>
         </Point>
      </Placemark>
      <Placemark>
         <name>小李庄孜</name>
         <Point>
            <coordinates>116.470928,32.738524,0</coordinates>
         </Point>
      </Placemark>
      <Placemark>
         <name>张坂孜</name>
         <Point>
            <coordinates>116.472995,32.818198,0</coordinates>
         </Point>
      </Placemark>
      <Placemark>
         <name>黄小圩孜</name>
         <Point>
            <coordinates>116.567397,32.621242,0</coordinates>
         </Point>
      </Placemark>
      <Placemark>
         <name>秦小圩孜</name>
         <Point>
            <coordinates>116.766944,32.848089,0</coordinates>
         </Point>
      </Placemark>
      <Placemark>
         <name>小圩孜</name>
         <Point>
            <coordinates>116.780642,32.900835,0</coordinates>
         </Point>
      </Placemark>
      <Placemark>
         <name>韦庄孜</name>
         <Point>
            <coordinates>116.897833,32.842327,0</coordinates>
         </Point>
      </Placemark>
      <Placemark>
         <name>小圩孜</name>
         <Point>
            <coordinates>117.003591,32.770412,0</coordinates>
         </Point>
      </Placemark>
      <Placemark>
         <name>小圩孜</name>
         <Point>
            <coordinates>116.807087,32.864692,0</coordinates>
         </Point>
      </Placemark>
      <Placemark>
         <name>小圩孜</name>
         <Point>
            <coordinates>116.873815,32.815045,0</coordinates>
         </Point>
      </Placemark>
      <Placemark>
         <name>西洼孜</name>
         <Point>
            <coordinates>116.842425,32.581116,0</coordinates>
         </Point>
      </Placemark>
      <Placemark>
         <name>小圩孜</name>
         <Point>
            <coordinates>116.635346,32.668679,0</coordinates>
         </Point>
      </Placemark>
      <Placemark>
         <name>土坝孜</name>
         <Point>
            <coordinates>116.855464,32.624349,0</coordinates>
         </Point>
      </Placemark>
      <Placemark>
         <name>六湾孜</name>
         <Point>
            <coordinates>116.693734,32.767124,0</coordinates>
         </Point>
      </Placemark>
      <Placemark>
         <name>小圩孜</name>
         <Point>
            <coordinates>116.603998,32.736681,0</coordinates>
         </Point>
      </Placemark>
      <Placemark>
         <name>岗头孜</name>
         <Point>
            <coordinates>116.691508,32.601083,0</coordinates>
         </Point>
      </Placemark>
      <Placemark>
         <name>崔小圩孜</name>
         <Point>
            <coordinates>117.164668,32.656559,0</coordinates>
         </Point>
      </Placemark>
      <Placemark>
         <name>石小台孜</name>
         <Point>
            <coordinates>116.608115,32.632181,0</coordinates>
         </Point>
      </Placemark>
      <Placemark>
         <name>徐家圩孜</name>
         <Point>
            <coordinates>116.808186,32.768348,0</coordinates>
         </Point>
      </Placemark>
      <Placemark>
         <name>张家拐孜</name>
         <Point>
            <coordinates>116.860211,32.709192,0</coordinates>
         </Point>
      </Placemark>
      <Placemark>
         <name>刘松林孜</name>
         <Point>
            <coordinates>116.545712,32.946659,0</coordinates>
         </Point>
      </Placemark>
      <Placemark>
         <name>朱家台孜</name>
         <Point>
            <coordinates>116.603989,32.730678,0</coordinates>
         </Point>
      </Placemark>
      <Placemark>
         <name>谢家圩孜</name>
         <Point>
            <coordinates>116.895324,32.687153,0</coordinates>
         </Point>
      </Placemark>
      <Placemark>
         <name>应台孜</name>
         <Point>
            <coordinates>116.897618,32.610823,0</coordinates>
         </Point>
      </Placemark>
      <Placemark>
         <name>应台孜</name>
         <Point>
            <coordinates>116.8959,32.636911,0</coordinates>
         </Point>
      </Placemark>
      <Placemark>
         <name>应台孜</name>
         <Point>
            <coordinates>116.897502,32.610716,0</coordinates>
         </Point>
      </Placemark>
      <Placemark>
         <name>土坝孜</name>
         <Point>
            <coordinates>116.853701,32.625035,0</coordinates>
         </Point>
      </Placemark>
      <Placemark>
         <name>前黄圩孜</name>
         <Point>
            <coordinates>116.421956,32.935696,0</coordinates>
         </Point>
      </Placemark>
      <Placemark>
         <name>李黄台孜</name>
         <Point>
            <coordinates>116.629231,32.639029,0</coordinates>
         </Point>
      </Placemark>
      <Placemark>
         <name>王朱圩孜</name>
         <Point>
            <coordinates>116.84483,32.838946,0</coordinates>
         </Point>
      </Placemark>
      <Placemark>
         <name>石老台孜</name>
         <Point>
            <coordinates>116.603544,32.636327,0</coordinates>
         </Point>
      </Placemark>
      <Placemark>
         <name>圩孜</name>
         <Point>
            <coordinates>116.490067,32.877259,0</coordinates>
         </Point>
      </Placemark>
      <Placemark>
         <name>管咀孜</name>
         <Point>
            <coordinates>117.158705,32.702692,0</coordinates>
         </Point>
      </Placemark>
      <Placemark>
         <name>前圩孜</name>
         <Point>
            <coordinates>116.926835,32.779639,0</coordinates>
         </Point>
      </Placemark>
      <Placemark>
         <name>陈圩孜</name>
         <Point>
            <coordinates>116.945757,32.734278,0</coordinates>
         </Point>
      </Placemark>
      <Placemark>
         <name>方拐孜</name>
         <Point>
            <coordinates>116.937273,32.698019,0</coordinates>
         </Point>
      </Placemark>
      <Placemark>
         <name>柳林孜</name>
         <Point>
            <coordinates>116.866945,32.834085,0</coordinates>
         </Point>
      </Placemark>
      <Placemark>
         <name>乔庄孜</name>
         <Point>
            <coordinates>116.883104,32.831858,0</coordinates>
         </Point>
      </Placemark>
      <Placemark>
         <name>圩庄孜</name>
         <Point>
            <coordinates>116.885234,32.841186,0</coordinates>
         </Point>
      </Placemark>
      <Placemark>
         <name>穆庄孜</name>
         <Point>
            <coordinates>116.832748,32.834698,0</coordinates>
         </Point>
      </Placemark>
      <Placemark>
         <name>大圩孜</name>
         <Point>
            <coordinates>116.811721,32.866062,0</coordinates>
         </Point>
      </Placemark>
      <Placemark>
         <name>马庄孜</name>
         <Point>
            <coordinates>116.850221,32.820613,0</coordinates>
         </Point>
      </Placemark>
      <Placemark>
         <name>夏庄孜</name>
         <Point>
            <coordinates>116.787724,32.843068,0</coordinates>
         </Point>
      </Placemark>
      <Placemark>
         <name>董圩孜</name>
         <Point>
            <coordinates>116.742706,32.864592,0</coordinates>
         </Point>
      </Placemark>
      <Placemark>
         <name>于圩孜</name>
         <Point>
            <coordinates>116.855885,32.740155,0</coordinates>
         </Point>
      </Placemark>
      <Placemark>
         <name>新圩孜</name>
         <Point>
            <coordinates>116.806155,32.742402,0</coordinates>
         </Point>
      </Placemark>
      <Placemark>
         <name>周庄孜</name>
         <Point>
            <coordinates>116.936511,32.6472,0</coordinates>
         </Point>
      </Placemark>
      <Placemark>
         <name>王圩孜</name>
         <Point>
            <coordinates>116.907548,32.556287,0</coordinates>
         </Point>
      </Placemark>
      <Placemark>
         <name>童圩孜</name>
         <Point>
            <coordinates>116.551955,32.92107,0</coordinates>
         </Point>
      </Placemark>
      <Placemark>
         <name>新庄孜</name>
         <Point>
            <coordinates>116.545453,32.912335,0</coordinates>
         </Point>
      </Placemark>
      <Placemark>
         <name>马圩孜</name>
         <Point>
            <coordinates>116.388031,32.978014,0</coordinates>
         </Point>
      </Placemark>
      <Placemark>
         <name>孙圩孜</name>
         <Point>
            <coordinates>116.399774,32.991555,0</coordinates>
         </Point>
      </Placemark>
      <Placemark>
         <name>蒋圩孜</name>
         <Point>
            <coordinates>116.40177,32.970177,0</coordinates>
         </Point>
      </Placemark>
      <Placemark>
         <name>刘圩孜</name>
         <Point>
            <coordinates>116.484259,32.938585,0</coordinates>
         </Point>
      </Placemark>
      <Placemark>
         <name>王圩孜</name>
         <Point>
            <coordinates>116.422517,32.922293,0</coordinates>
         </Point>
      </Placemark>
      <Placemark>
         <name>新集孜</name>
         <Point>
            <coordinates>116.428392,32.909053,0</coordinates>
         </Point>
      </Placemark>
      <Placemark>
         <name>宋圩孜</name>
         <Point>
            <coordinates>116.649835,32.869314,0</coordinates>
         </Point>
      </Placemark>
      <Placemark>
         <name>蒋圩孜</name>
         <Point>
            <coordinates>116.706949,32.791589,0</coordinates>
         </Point>
      </Placemark>
      <Placemark>
         <name>叶台孜</name>
         <Point>
            <coordinates>116.546668,32.857206,0</coordinates>
         </Point>
      </Placemark>
      <Placemark>
         <name>黄庄孜</name>
         <Point>
            <coordinates>116.574652,32.860555,0</coordinates>
         </Point>
      </Placemark>
      <Placemark>
         <name>马圩孜</name>
         <Point>
            <coordinates>116.691349,32.713138,0</coordinates>
         </Point>
      </Placemark>
      <Placemark>
         <name>新庄孜</name>
         <Point>
            <coordinates>116.55192,32.744509,0</coordinates>
         </Point>
      </Placemark>
      <Placemark>
         <name>后咀孜</name>
         <Point>
            <coordinates>116.571152,32.754636,0</coordinates>
         </Point>
      </Placemark>
      <Placemark>
         <name>南海孜</name>
         <Point>
            <coordinates>116.468156,32.842054,0</coordinates>
         </Point>
      </Placemark>
      <Placemark>
         <name>柏圩孜</name>
         <Point>
            <coordinates>116.512081,32.813812,0</coordinates>
         </Point>
      </Placemark>
      <Placemark>
         <name>小海孜</name>
         <Point>
            <coordinates>116.467923,32.79405,0</coordinates>
         </Point>
      </Placemark>
      <Placemark>
         <name>施庄孜</name>
         <Point>
            <coordinates>116.45759,32.80954,0</coordinates>
         </Point>
      </Placemark>
      <Placemark>
         <name>石庄孜</name>
         <Point>
            <coordinates>116.525814,32.768213,0</coordinates>
         </Point>
      </Placemark>
      <Placemark>
         <name>大圩孜</name>
         <Point>
            <coordinates>116.504362,32.721208,0</coordinates>
         </Point>
      </Placemark>
      <Placemark>
         <name>后拐孜</name>
         <Point>
            <coordinates>116.579616,32.66829,0</coordinates>
         </Point>
      </Placemark>
      <Placemark>
         <name>黄台孜</name>
         <Point>
            <coordinates>116.606518,32.621651,0</coordinates>
         </Point>
      </Placemark>
      <Placemark>
         <name>陆台孜</name>
         <Point>
            <coordinates>116.643225,32.565663,0</coordinates>
         </Point>
      </Placemark>
      <Placemark>
         <name>方坎孜</name>
         <Point>
            <coordinates>116.669122,32.574487,0</coordinates>
         </Point>
      </Placemark>
      <Placemark>
         <name>后台孜</name>
         <Point>
            <coordinates>117.144367,32.715904,0</coordinates>
         </Point>
      </Placemark>
      <Placemark>
         <name>魏圩孜</name>
         <Point>
            <coordinates>116.795785,32.883252,0</coordinates>
         </Point>
      </Placemark>
      <Placemark>
         <name>倪圩孜</name>
         <Point>
            <coordinates>116.739213,32.894946,0</coordinates>
         </Point>
      </Placemark>
      <Placemark>
         <name>黄圩孜</name>
         <Point>
            <coordinates>116.909911,32.813937,0</coordinates>
         </Point>
      </Placemark>
      <Placemark>
         <name>梨园孜</name>
         <Point>
            <coordinates>116.911807,32.788921,0</coordinates>
         </Point>
      </Placemark>
      <Placemark>
         <name>新庄孜</name>
         <Point>
            <coordinates>116.926592,32.78732,0</coordinates>
         </Point>
      </Placemark>
      <Placemark>
         <name>后圩孜</name>
         <Point>
            <coordinates>116.998749,32.717554,0</coordinates>
         </Point>
      </Placemark>
      <Placemark>
         <name>马台孜</name>
         <Point>
            <coordinates>116.939374,32.759887,0</coordinates>
         </Point>
      </Placemark>
      <Placemark>
         <name>刘庄孜</name>
         <Point>
            <coordinates>116.960801,32.773403,0</coordinates>
         </Point>
      </Placemark>
      <Placemark>
         <name>前圩孜</name>
         <Point>
            <coordinates>116.913045,32.744268,0</coordinates>
         </Point>
      </Placemark>
      <Placemark>
         <name>竹园孜</name>
         <Point>
            <coordinates>116.953494,32.730399,0</coordinates>
         </Point>
      </Placemark>
      <Placemark>
         <name>孔圩孜</name>
         <Point>
            <coordinates>116.960669,32.708119,0</coordinates>
         </Point>
      </Placemark>
      <Placemark>
         <name>新圩孜</name>
         <Point>
            <coordinates>116.914909,32.72025,0</coordinates>
         </Point>
      </Placemark>
      <Placemark>
         <name>后庄孜</name>
         <Point>
            <coordinates>116.877263,32.832711,0</coordinates>
         </Point>
      </Placemark>
      <Placemark>
         <name>新王孜</name>
         <Point>
            <coordinates>116.842281,32.86769,0</coordinates>
         </Point>
      </Placemark>
      <Placemark>
         <name>新庄孜</name>
         <Point>
            <coordinates>116.848396,32.862242,0</coordinates>
         </Point>
      </Placemark>
      <Placemark>
         <name>老庄孜</name>
         <Point>
            <coordinates>116.775383,32.823289,0</coordinates>
         </Point>
      </Placemark>
      <Placemark>
         <name>钱店孜</name>
         <Point>
            <coordinates>116.757701,32.81951,0</coordinates>
         </Point>
      </Placemark>
      <Placemark>
         <name>施圩孜</name>
         <Point>
            <coordinates>116.885359,32.745275,0</coordinates>
         </Point>
      </Placemark>
      <Placemark>
         <name>马庄孜</name>
         <Point>
            <coordinates>116.892128,32.733481,0</coordinates>
         </Point>
      </Placemark>
      <Placemark>
         <name>后拐孜</name>
         <Point>
            <coordinates>116.838499,32.729104,0</coordinates>
         </Point>
      </Placemark>
      <Placemark>
         <name>小庄孜</name>
         <Point>
            <coordinates>117.115257,32.686388,0</coordinates>
         </Point>
      </Placemark>
      <Placemark>
         <name>新庄孜</name>
         <Point>
            <coordinates>117.06515,32.678338,0</coordinates>
         </Point>
      </Placemark>
      <Placemark>
         <name>西嘴孜</name>
         <Point>
            <coordinates>116.883167,32.684034,0</coordinates>
         </Point>
      </Placemark>
      <Placemark>
         <name>王圩孜</name>
         <Point>
            <coordinates>116.589004,32.877077,0</coordinates>
         </Point>
      </Placemark>
      <Placemark>
         <name>新庄孜</name>
         <Point>
            <coordinates>116.49251,32.974233,0</coordinates>
         </Point>
      </Placemark>
      <Placemark>
         <name>芦井孜</name>
         <Point>
            <coordinates>116.443959,32.977167,0</coordinates>
         </Point>
      </Placemark>
      <Placemark>
         <name>朱圩孜</name>
         <Point>
            <coordinates>116.4228,32.996049,0</coordinates>
         </Point>
      </Placemark>
      <Placemark>
         <name>三咀孜</name>
         <Point>
            <coordinates>116.530334,32.948683,0</coordinates>
         </Point>
      </Placemark>
      <Placemark>
         <name>康庄孜</name>
         <Point>
            <coordinates>116.526129,32.89134,0</coordinates>
         </Point>
      </Placemark>
      <Placemark>
         <name>后圩孜</name>
         <Point>
            <coordinates>116.542902,32.908079,0</coordinates>
         </Point>
      </Placemark>
      <Placemark>
         <name>崔圩孜</name>
         <Point>
            <coordinates>116.388832,32.958293,0</coordinates>
         </Point>
      </Placemark>
      <Placemark>
         <name>前海孜</name>
         <Point>
            <coordinates>116.448057,32.871775,0</coordinates>
         </Point>
      </Placemark>
      <Placemark>
         <name>宋庄孜</name>
         <Point>
            <coordinates>116.662884,32.870377,0</coordinates>
         </Point>
      </Placemark>
      <Placemark>
         <name>童台孜</name>
         <Point>
            <coordinates>116.545601,32.856263,0</coordinates>
         </Point>
      </Placemark>
      <Placemark>
         <name>小店孜</name>
         <Point>
            <coordinates>116.689863,32.76228,0</coordinates>
         </Point>
      </Placemark>
      <Placemark>
         <name>老圩孜</name>
         <Point>
            <coordinates>116.677613,32.716041,0</coordinates>
         </Point>
      </Placemark>
      <Placemark>
         <name>椿井孜</name>
         <Point>
            <coordinates>116.676004,32.73436,0</coordinates>
         </Point>
      </Placemark>
      <Placemark>
         <name>颜圩孜</name>
         <Point>
            <coordinates>116.666577,32.723679,0</coordinates>
         </Point>
      </Placemark>
      <Placemark>
         <name>大庄孜</name>
         <Point>
            <coordinates>116.525893,32.864541,0</coordinates>
         </Point>
      </Placemark>
      <Placemark>
         <name>新庄孜</name>
         <Point>
            <coordinates>116.513741,32.817581,0</coordinates>
         </Point>
      </Placemark>
      <Placemark>
         <name>徐圩孜</name>
         <Point>
            <coordinates>116.459152,32.803629,0</coordinates>
         </Point>
      </Placemark>
      <Placemark>
         <name>老圩孜</name>
         <Point>
            <coordinates>116.464844,32.739853,0</coordinates>
         </Point>
      </Placemark>
      <Placemark>
         <name>东岗孜</name>
         <Point>
            <coordinates>116.695247,32.689941,0</coordinates>
         </Point>
      </Placemark>
      <Placemark>
         <name>楼台孜</name>
         <Point>
            <coordinates>116.657275,32.625167,0</coordinates>
         </Point>
      </Placemark>
      <Placemark>
         <name>王圩孜</name>
         <Point>
            <coordinates>116.672792,32.623738,0</coordinates>
         </Point>
      </Placemark>
      <Placemark>
         <name>石台孜</name>
         <Point>
            <coordinates>116.623797,32.640011,0</coordinates>
         </Point>
      </Placemark>
      <Placemark>
         <name>断台孜</name>
         <Point>
            <coordinates>116.692688,32.603291,0</coordinates>
         </Point>
      </Placemark>
      <Placemark>
         <name>前圩孜</name>
         <Point>
            <coordinates>116.824136,32.876491,0</coordinates>
         </Point>
      </Placemark>
      <Placemark>
         <name>史圩孜</name>
         <Point>
            <coordinates>116.728452,32.893242,0</coordinates>
         </Point>
      </Placemark>
      <Placemark>
         <name>柏庄孜</name>
         <Point>
            <coordinates>116.989343,32.788754,0</coordinates>
         </Point>
      </Placemark>
      <Placemark>
         <name>陆庄孜</name>
         <Point>
            <coordinates>116.94999,32.756942,0</coordinates>
         </Point>
      </Placemark>
      <Placemark>
         <name>陶圩孜</name>
         <Point>
            <coordinates>116.911088,32.782618,0</coordinates>
         </Point>
      </Placemark>
      <Placemark>
         <name>新庄孜</name>
         <Point>
            <coordinates>116.881916,32.825866,0</coordinates>
         </Point>
      </Placemark>
      <Placemark>
         <name>前圩孜</name>
         <Point>
            <coordinates>116.86273,32.809238,0</coordinates>
         </Point>
      </Placemark>
      <Placemark>
         <name>苗庄孜</name>
         <Point>
            <coordinates>116.772381,32.815439,0</coordinates>
         </Point>
      </Placemark>
      <Placemark>
         <name>新庄孜</name>
         <Point>
            <coordinates>116.772597,32.824989,0</coordinates>
         </Point>
      </Placemark>
      <Placemark>
         <name>辛庄孜</name>
         <Point>
            <coordinates>116.769993,32.800643,0</coordinates>
         </Point>
      </Placemark>
      <Placemark>
         <name>新庄孜</name>
         <Point>
            <coordinates>116.734062,32.783946,0</coordinates>
         </Point>
      </Placemark>
      <Placemark>
         <name>新圩孜</name>
         <Point>
            <coordinates>116.873613,32.759818,0</coordinates>
         </Point>
      </Placemark>
      <Placemark>
         <name>许圩孜</name>
         <Point>
            <coordinates>116.841665,32.729376,0</coordinates>
         </Point>
      </Placemark>
      <Placemark>
         <name>前拐孜</name>
         <Point>
            <coordinates>116.841584,32.72063,0</coordinates>
         </Point>
      </Placemark>
      <Placemark>
         <name>陶圩孜</name>
         <Point>
            <coordinates>116.81715,32.726038,0</coordinates>
         </Point>
      </Placemark>
      <Placemark>
         <name>金庄孜</name>
         <Point>
            <coordinates>116.805824,32.743049,0</coordinates>
         </Point>
      </Placemark>
      <Placemark>
         <name>前圩孜</name>
         <Point>
            <coordinates>116.722099,32.771195,0</coordinates>
         </Point>
      </Placemark>
      <Placemark>
         <name>刘庄孜</name>
         <Point>
            <coordinates>116.967945,32.619301,0</coordinates>
         </Point>
      </Placemark>
      <Placemark>
         <name>杨庄孜</name>
         <Point>
            <coordinates>116.935473,32.641492,0</coordinates>
         </Point>
      </Placemark>
      <Placemark>
         <name>大圩孜</name>
         <Point>
            <coordinates>116.92755,32.592491,0</coordinates>
         </Point>
      </Placemark>
      <Placemark>
         <name>小店孜</name>
         <Point>
            <coordinates>116.905995,32.581959,0</coordinates>
         </Point>
      </Placemark>
      <Placemark>
         <name>新庄孜</name>
         <Point>
            <coordinates>116.913598,32.580179,0</coordinates>
         </Point>
      </Placemark>
      <Placemark>
         <name>方庄孜</name>
         <Point>
            <coordinates>116.877266,32.694771,0</coordinates>
         </Point>
      </Placemark>
      <Placemark>
         <name>平山孜</name>
         <Point>
            <coordinates>116.825238,32.653304,0</coordinates>
         </Point>
      </Placemark>
      <Placemark>
         <name>土门孜</name>
         <Point>
            <coordinates>116.829194,32.642942,0</coordinates>
         </Point>
      </Placemark>
      <Placemark>
         <name>小庄孜</name>
         <Point>
            <coordinates>116.765497,32.672327,0</coordinates>
         </Point>
      </Placemark>
      <Placemark>
         <name>满台孜</name>
         <Point>
            <coordinates>116.750585,32.641374,0</coordinates>
         </Point>
      </Placemark>
      <Placemark>
         <name>下岗孜</name>
         <Point>
            <coordinates>116.843249,32.579692,0</coordinates>
         </Point>
      </Placemark>
      <Placemark>
         <name>杨庄孜</name>
         <Point>
            <coordinates>116.582984,32.908069,0</coordinates>
         </Point>
      </Placemark>
      <Placemark>
         <name>王圩孜</name>
         <Point>
            <coordinates>116.394652,32.998233,0</coordinates>
         </Point>
      </Placemark>
      <Placemark>
         <name>后海孜</name>
         <Point>
            <coordinates>116.506614,32.926707,0</coordinates>
         </Point>
      </Placemark>
      <Placemark>
         <name>狗园孜</name>
         <Point>
            <coordinates>116.521685,32.884456,0</coordinates>
         </Point>
      </Placemark>
      <Placemark>
         <name>孙圩孜</name>
         <Point>
            <coordinates>116.429317,32.932328,0</coordinates>
         </Point>
      </Placemark>
      <Placemark>
         <name>八庄孜</name>
         <Point>
            <coordinates>116.406632,32.885696,0</coordinates>
         </Point>
      </Placemark>
      <Placemark>
         <name>前台孜</name>
         <Point>
            <coordinates>116.707847,32.789278,0</coordinates>
         </Point>
      </Placemark>
      <Placemark>
         <name>小庄孜</name>
         <Point>
            <coordinates>116.593741,32.826331,0</coordinates>
         </Point>
      </Placemark>
      <Placemark>
         <name>王圩孜</name>
         <Point>
            <coordinates>116.606842,32.813225,0</coordinates>
         </Point>
      </Placemark>
      <Placemark>
         <name>西庄孜</name>
         <Point>
            <coordinates>116.656531,32.733529,0</coordinates>
         </Point>
      </Placemark>
      <Placemark>
         <name>柿圩孜</name>
         <Point>
            <coordinates>116.669026,32.720055,0</coordinates>
         </Point>
      </Placemark>
      <Placemark>
         <name>刘圩孜</name>
         <Point>
            <coordinates>116.654516,32.709575,0</coordinates>
         </Point>
      </Placemark>
      <Placemark>
         <name>前咀孜</name>
         <Point>
            <coordinates>116.570138,32.75218,0</coordinates>
         </Point>
      </Placemark>
      <Placemark>
         <name>前巷孜</name>
         <Point>
            <coordinates>116.569398,32.714764,0</coordinates>
         </Point>
      </Placemark>
      <Placemark>
         <name>后巷孜</name>
         <Point>
            <coordinates>116.564336,32.72172,0</coordinates>
         </Point>
      </Placemark>
      <Placemark>
         <name>盛庄孜</name>
         <Point>
            <coordinates>116.520952,32.829309,0</coordinates>
         </Point>
      </Placemark>
      <Placemark>
         <name>吕圩孜</name>
         <Point>
            <coordinates>116.526357,32.804347,0</coordinates>
         </Point>
      </Placemark>
      <Placemark>
         <name>老海孜</name>
         <Point>
            <coordinates>116.469344,32.797535,0</coordinates>
         </Point>
      </Placemark>
      <Placemark>
         <name>小庄孜</name>
         <Point>
            <coordinates>116.417175,32.867571,0</coordinates>
         </Point>
      </Placemark>
      <Placemark>
         <name>南庄孜</name>
         <Point>
            <coordinates>116.538384,32.744143,0</coordinates>
         </Point>
      </Placemark>
      <Placemark>
         <name>杨圩孜</name>
         <Point>
            <coordinates>116.451712,32.712634,0</coordinates>
         </Point>
      </Placemark>
      <Placemark>
         <name>花庄孜</name>
         <Point>
            <coordinates>116.598938,32.664293,0</coordinates>
         </Point>
      </Placemark>
      <Placemark>
         <name>岳台孜</name>
         <Point>
            <coordinates>116.59607,32.621967,0</coordinates>
         </Point>
      </Placemark>
      <Placemark>
         <name>尚台孜</name>
         <Point>
            <coordinates>116.689533,32.603319,0</coordinates>
         </Point>
      </Placemark>
      <Placemark>
         <name>祝台孜</name>
         <Point>
            <coordinates>116.649845,32.567509,0</coordinates>
         </Point>
      </Placemark>
      <Placemark>
         <name>李畔圩孜</name>
         <Point>
            <coordinates>116.902639,32.791796,0</coordinates>
         </Point>
      </Placemark>
      <Placemark>
         <name>梨树圩孜</name>
         <Point>
            <coordinates>116.804991,32.789691,0</coordinates>
         </Point>
      </Placemark>
      <Placemark>
         <name>小东庄孜</name>
         <Point>
            <coordinates>116.814591,32.73157,0</coordinates>
         </Point>
      </Placemark>
      <Placemark>
         <name>大米海孜</name>
         <Point>
            <coordinates>116.562399,32.923593,0</coordinates>
         </Point>
      </Placemark>
      <Placemark>
         <name>苏后圩孜</name>
         <Point>
            <coordinates>116.40097,32.882777,0</coordinates>
         </Point>
      </Placemark>
      <Placemark>
         <name>石桂台孜</name>
         <Point>
            <coordinates>116.591169,32.629506,0</coordinates>
         </Point>
      </Placemark>
      <Placemark>
         <name>小米海孜</name>
         <Point>
            <coordinates>116.559174,32.922155,0</coordinates>
         </Point>
      </Placemark>
      <Placemark>
         <name>东王咀孜</name>
         <Point>
            <coordinates>116.934678,32.758436,0</coordinates>
         </Point>
      </Placemark>
      <Placemark>
         <name>小范圩孜</name>
         <Point>
            <coordinates>116.93363,32.602524,0</coordinates>
         </Point>
      </Placemark>
      <Placemark>
         <name>牛大台孜</name>
         <Point>
            <coordinates>116.646941,32.628124,0</coordinates>
         </Point>
      </Placemark>
      <Placemark>
         <name>十八亩海孜</name>
         <Point>
            <coordinates>116.400209,32.866425,0</coordinates>
         </Point>
      </Placemark>
      <Placemark>
         <name>余家大圩孜</name>
         <Point>
            <coordinates>116.960585,32.696168,0</coordinates>
         </Point>
      </Placemark>
      <Placemark>
         <name>彭家小台孜</name>
         <Point>
            <coordinates>116.606406,32.726441,0</coordinates>
         </Point>
      </Placemark>
      <Placemark>
         <name>新庄孜</name>
         <Point>
            <coordinates>116.852842,32.63641,0</coordinates>
         </Point>
      </Placemark>
   </Document>
</kml>
