<?xml version="1.0" encoding="UTF-8"?>
<kml>
   <Document>
      <name>TS02E02庄</name>
      <Placemark>
         <name>鲁庄</name>
         <styleUrl>#icon-1739-000000-nodesc</styleUrl>
         <Point>
            <coordinates>
          115.5019283,33.8994868,0
        </coordinates>
         </Point>
      </Placemark>
      <Placemark>
         <name>新庄</name>
         <styleUrl>#icon-1739-000000-nodesc</styleUrl>
         <Point>
            <coordinates>
          115.5305099,33.8958534,0
        </coordinates>
         </Point>
      </Placemark>
      <Placemark>
         <name>栗庄</name>
         <styleUrl>#icon-1739-000000-nodesc</styleUrl>
         <Point>
            <coordinates>
          115.5201244,33.8996293,0
        </coordinates>
         </Point>
      </Placemark>
      <Placemark>
         <name>姚庄</name>
         <styleUrl>#icon-1739-000000-nodesc</styleUrl>
         <Point>
            <coordinates>
          115.5020571,33.8861281,0
        </coordinates>
         </Point>
      </Placemark>
      <Placemark>
         <name>算李庄村</name>
         <styleUrl>#icon-1739-000000-nodesc</styleUrl>
         <Point>
            <coordinates>
          115.5242014,33.8805702,0
        </coordinates>
         </Point>
      </Placemark>
      <Placemark>
         <name>常庄</name>
         <styleUrl>#icon-1739-000000-nodesc</styleUrl>
         <Point>
            <coordinates>
          115.5134296,33.8746201,0
        </coordinates>
         </Point>
      </Placemark>
      <Placemark>
         <name>康庄</name>
         <styleUrl>#icon-1739-000000-nodesc</styleUrl>
         <Point>
            <coordinates>
          115.5275488,33.8761522,0
        </coordinates>
         </Point>
      </Placemark>
      <Placemark>
         <name>油坊庄</name>
         <styleUrl>#icon-1739-000000-nodesc</styleUrl>
         <Point>
            <coordinates>
          115.5059624,33.8707362,0
        </coordinates>
         </Point>
      </Placemark>
      <Placemark>
         <name>五门李庄</name>
         <styleUrl>#icon-1739-000000-nodesc</styleUrl>
         <Point>
            <coordinates>
          115.5342007,33.8770786,0
        </coordinates>
         </Point>
      </Placemark>
      <Placemark>
         <name>黄王庄</name>
         <styleUrl>#icon-1739-000000-nodesc</styleUrl>
         <Point>
            <coordinates>
          115.51579,33.8693109,0
        </coordinates>
         </Point>
      </Placemark>
      <Placemark>
         <name>前新庄</name>
         <styleUrl>#icon-1739-000000-nodesc</styleUrl>
         <Point>
            <coordinates>
          115.5604649,33.898347,0
        </coordinates>
         </Point>
      </Placemark>
      <Placemark>
         <name>大阎庄</name>
         <styleUrl>#icon-1739-000000-nodesc</styleUrl>
         <Point>
            <coordinates>
          115.5561733,33.8930036,0
        </coordinates>
         </Point>
      </Placemark>
      <Placemark>
         <name>小阎庄村</name>
         <styleUrl>#icon-1739-000000-nodesc</styleUrl>
         <Point>
            <coordinates>
          115.5656147,33.8888,0
        </coordinates>
         </Point>
      </Placemark>
      <Placemark>
         <name>赵杨庄</name>
         <styleUrl>#icon-1739-000000-nodesc</styleUrl>
         <Point>
            <coordinates>
          115.5768585,33.8860212,0
        </coordinates>
         </Point>
      </Placemark>
      <Placemark>
         <name>季庄</name>
         <styleUrl>#icon-1739-000000-nodesc</styleUrl>
         <Point>
            <coordinates>
          115.5798626,33.8811047,0
        </coordinates>
         </Point>
      </Placemark>
      <Placemark>
         <name>韩杨庄</name>
         <styleUrl>#icon-1739-000000-nodesc</styleUrl>
         <Point>
            <coordinates>
          115.5633831,33.8803921,0
        </coordinates>
         </Point>
      </Placemark>
      <Placemark>
         <name>小魏庄</name>
         <styleUrl>#icon-1739-000000-nodesc</styleUrl>
         <Point>
            <coordinates>
          115.5131721,33.8627898,0
        </coordinates>
         </Point>
      </Placemark>
      <Placemark>
         <name>张庄</name>
         <styleUrl>#icon-1739-000000-nodesc</styleUrl>
         <Point>
            <coordinates>
          115.5109406,33.8580145,0
        </coordinates>
         </Point>
      </Placemark>
      <Placemark>
         <name>郭阎庄</name>
         <styleUrl>#icon-1739-000000-nodesc</styleUrl>
         <Point>
            <coordinates>
          115.5213261,33.8525974,0
        </coordinates>
         </Point>
      </Placemark>
      <Placemark>
         <name>东王庄</name>
         <styleUrl>#icon-1739-000000-nodesc</styleUrl>
         <Point>
            <coordinates>
          115.5145454,33.8563039,0
        </coordinates>
         </Point>
      </Placemark>
      <Placemark>
         <name>西吕庄</name>
         <styleUrl>#icon-1739-000000-nodesc</styleUrl>
         <Point>
            <coordinates>
          115.5220127,33.8622197,0
        </coordinates>
         </Point>
      </Placemark>
      <Placemark>
         <name>朱庄</name>
         <styleUrl>#icon-1739-000000-nodesc</styleUrl>
         <Point>
            <coordinates>
          115.5322266,33.8644291,0
        </coordinates>
         </Point>
      </Placemark>
      <Placemark>
         <name>黄王庄村</name>
         <styleUrl>#icon-1739-000000-nodesc</styleUrl>
         <Point>
            <coordinates>
          115.5285358,33.8614357,0
        </coordinates>
         </Point>
      </Placemark>
      <Placemark>
         <name>袁庄</name>
         <styleUrl>#icon-1739-000000-nodesc</styleUrl>
         <Point>
            <coordinates>
          115.5166912,33.6862106,0
        </coordinates>
         </Point>
      </Placemark>
      <Placemark>
         <name>桂庄</name>
         <styleUrl>#icon-1739-000000-nodesc</styleUrl>
         <Point>
            <coordinates>
          115.4999542,33.695066,0
        </coordinates>
         </Point>
      </Placemark>
      <Placemark>
         <name>许庄</name>
         <styleUrl>#icon-1739-000000-nodesc</styleUrl>
         <Point>
            <coordinates>
          115.5166054,33.6973512,0
        </coordinates>
         </Point>
      </Placemark>
      <Placemark>
         <name>王心庄</name>
         <styleUrl>#icon-1739-000000-nodesc</styleUrl>
         <Point>
            <coordinates>
          115.5041599,33.7075621,0
        </coordinates>
         </Point>
      </Placemark>
      <Placemark>
         <name>李大庄</name>
         <styleUrl>#icon-1739-000000-nodesc</styleUrl>
         <Point>
            <coordinates>
          115.5177212,33.7314781,0
        </coordinates>
         </Point>
      </Placemark>
      <Placemark>
         <name>芦庄</name>
         <styleUrl>#icon-1739-000000-nodesc</styleUrl>
         <Point>
            <coordinates>
          115.508709,33.5998221,0
        </coordinates>
         </Point>
      </Placemark>
      <Placemark>
         <name>仵腰庄</name>
         <styleUrl>#icon-1739-000000-nodesc</styleUrl>
         <Point>
            <coordinates>
          115.5083656,33.6053981,0
        </coordinates>
         </Point>
      </Placemark>
      <Placemark>
         <name>高李庄
</name>
         <styleUrl>#icon-1739-000000-nodesc</styleUrl>
         <Point>
            <coordinates>
          115.5091381,33.6205518,0
        </coordinates>
         </Point>
      </Placemark>
      <Placemark>
         <name>仵路庄</name>
         <styleUrl>#icon-1739-000000-nodesc</styleUrl>
         <Point>
            <coordinates>
          115.5022717,33.6197656,0
        </coordinates>
         </Point>
      </Placemark>
      <Placemark>
         <name>郝庄</name>
         <styleUrl>#icon-1739-000000-nodesc</styleUrl>
         <Point>
            <coordinates>
          115.5212402,33.6369176,0
        </coordinates>
         </Point>
      </Placemark>
      <Placemark>
         <name>蔡庄</name>
         <styleUrl>#icon-1739-000000-nodesc</styleUrl>
         <Point>
            <coordinates>
          115.6228638,33.8045411,0
        </coordinates>
         </Point>
      </Placemark>
      <Placemark>
         <name>芦李庄</name>
         <styleUrl>#icon-1739-000000-nodesc</styleUrl>
         <Point>
            <coordinates>
          115.6136799,33.8005471,0
        </coordinates>
         </Point>
      </Placemark>
      <Placemark>
         <name>西王庄</name>
         <styleUrl>#icon-1739-000000-nodesc</styleUrl>
         <Point>
            <coordinates>
          115.6292152,33.8183761,0
        </coordinates>
         </Point>
      </Placemark>
      <Placemark>
         <name>小马庄</name>
         <styleUrl>#icon-1739-000000-nodesc</styleUrl>
         <Point>
            <coordinates>
          115.5905056,33.8466096,0
        </coordinates>
         </Point>
      </Placemark>
      <Placemark>
         <name>薛小庄村</name>
         <styleUrl>#icon-1739-000000-nodesc</styleUrl>
         <Point>
            <coordinates>
          115.5848408,33.8511005,0
        </coordinates>
         </Point>
      </Placemark>
      <Placemark>
         <name>翟庄</name>
         <styleUrl>#icon-1739-000000-nodesc</styleUrl>
         <Point>
            <coordinates>
          115.5993462,33.8473938,0
        </coordinates>
         </Point>
      </Placemark>
      <Placemark>
         <name>晏庄村</name>
         <styleUrl>#icon-1739-000000-nodesc</styleUrl>
         <Point>
            <coordinates>
          115.5663013,33.8657832,0
        </coordinates>
         </Point>
      </Placemark>
      <Placemark>
         <name>夏庄</name>
         <styleUrl>#icon-1739-000000-nodesc</styleUrl>
         <Point>
            <coordinates>
          115.5577183,33.8656406,0
        </coordinates>
         </Point>
      </Placemark>
      <Placemark>
         <name>焦庄</name>
         <styleUrl>#icon-1739-000000-nodesc</styleUrl>
         <Point>
            <coordinates>
          115.5467319,33.8712707,0
        </coordinates>
         </Point>
      </Placemark>
      <Placemark>
         <name>腰梁庄</name>
         <styleUrl>#icon-1739-000000-nodesc</styleUrl>
         <Point>
            <coordinates>
          115.545702,33.8667097,0
        </coordinates>
         </Point>
      </Placemark>
      <Placemark>
         <name>大贺庄村</name>
         <styleUrl>#icon-1739-000000-nodesc</styleUrl>
         <Point>
            <coordinates>
          115.5429554,33.8637876,0
        </coordinates>
         </Point>
      </Placemark>
      <Placemark>
         <name>打车王庄</name>
         <styleUrl>#icon-1739-000000-nodesc</styleUrl>
         <Point>
            <coordinates>
          115.6127357,33.8942861,0
        </coordinates>
         </Point>
      </Placemark>
      <Placemark>
         <name>孙小庄</name>
         <styleUrl>#icon-1739-000000-nodesc</styleUrl>
         <Point>
            <coordinates>
          115.6189156,33.9004129,0
        </coordinates>
         </Point>
      </Placemark>
      <Placemark>
         <name>石庄村</name>
         <styleUrl>#icon-1739-000000-nodesc</styleUrl>
         <Point>
            <coordinates>
          115.6286144,33.8854512,0
        </coordinates>
         </Point>
      </Placemark>
      <Placemark>
         <name>大刘庄</name>
         <styleUrl>#icon-1739-000000-nodesc</styleUrl>
         <Point>
            <coordinates>
          115.615654,33.8780406,0
        </coordinates>
         </Point>
      </Placemark>
      <Placemark>
         <name>姬庄</name>
         <styleUrl>#icon-1739-000000-nodesc</styleUrl>
         <Point>
            <coordinates>
          115.6347084,33.8819597,0
        </coordinates>
         </Point>
      </Placemark>
      <Placemark>
         <name>雅庄
</name>
         <styleUrl>#icon-1739-000000-nodesc</styleUrl>
         <Point>
            <coordinates>
          115.6070709,33.8716983,0
        </coordinates>
         </Point>
      </Placemark>
      <Placemark>
         <name>叶庄</name>
         <styleUrl>#icon-1739-000000-nodesc</styleUrl>
         <Point>
            <coordinates>
          115.6110191,33.8679925,0
        </coordinates>
         </Point>
      </Placemark>
      <Placemark>
         <name>张翁庄</name>
         <styleUrl>#icon-1739-000000-nodesc</styleUrl>
         <Point>
            <coordinates>
          115.5869007,33.8578007,0
        </coordinates>
         </Point>
      </Placemark>
      <Placemark>
         <name>李恩庄</name>
         <styleUrl>#icon-1739-000000-nodesc</styleUrl>
         <Point>
            <coordinates>
          115.7135868,33.8627898,0
        </coordinates>
         </Point>
      </Placemark>
      <Placemark>
         <name>南陈庄</name>
         <styleUrl>#icon-1739-000000-nodesc</styleUrl>
         <Point>
            <coordinates>
          115.7012272,33.8607942,0
        </coordinates>
         </Point>
      </Placemark>
      <Placemark>
         <name>瓦房庄
</name>
         <styleUrl>#icon-1739-000000-nodesc</styleUrl>
         <Point>
            <coordinates>
          115.7244873,33.8647141,0
        </coordinates>
         </Point>
      </Placemark>
      <Placemark>
         <name>和尚庄</name>
         <styleUrl>#icon-1739-000000-nodesc</styleUrl>
         <Point>
            <coordinates>
          115.7017422,33.8750477,0
        </coordinates>
         </Point>
      </Placemark>
      <Placemark>
         <name>卓庄
</name>
         <styleUrl>#icon-1739-000000-nodesc</styleUrl>
         <Point>
            <coordinates>
          115.6858635,33.8825298,0
        </coordinates>
         </Point>
      </Placemark>
      <Placemark>
         <name>小周庄</name>
         <styleUrl>#icon-1739-000000-nodesc</styleUrl>
         <Point>
            <coordinates>
          115.6594276,33.8627186,0
        </coordinates>
         </Point>
      </Placemark>
      <Placemark>
         <name>郭庄</name>
         <styleUrl>#icon-1739-000000-nodesc</styleUrl>
         <Point>
            <coordinates>
          115.653162,33.8665671,0
        </coordinates>
         </Point>
      </Placemark>
      <Placemark>
         <name>大王庄</name>
         <styleUrl>#icon-1739-000000-nodesc</styleUrl>
         <Point>
            <coordinates>
          115.6613159,33.8596538,0
        </coordinates>
         </Point>
      </Placemark>
      <Placemark>
         <name>大崔庄村</name>
         <styleUrl>#icon-1739-000000-nodesc</styleUrl>
         <Point>
            <coordinates>
          115.6195164,33.8560188,0
        </coordinates>
         </Point>
      </Placemark>
      <Placemark>
         <name>小施庄</name>
         <styleUrl>#icon-1739-000000-nodesc</styleUrl>
         <Point>
            <coordinates>
          115.6127357,33.8525261,0
        </coordinates>
         </Point>
      </Placemark>
      <Placemark>
         <name>小赵庄</name>
         <styleUrl>#icon-1739-000000-nodesc</styleUrl>
         <Point>
            <coordinates>
          115.6277561,33.8458968,0
        </coordinates>
         </Point>
      </Placemark>
      <Placemark>
         <name>大郭庄</name>
         <styleUrl>#icon-1739-000000-nodesc</styleUrl>
         <Point>
            <coordinates>
          115.6306744,33.8432592,0
        </coordinates>
         </Point>
      </Placemark>
      <Placemark>
         <name>大怀庄</name>
         <styleUrl>#icon-1739-000000-nodesc</styleUrl>
         <Point>
            <coordinates>
          115.6145382,33.8445424,0
        </coordinates>
         </Point>
      </Placemark>
      <Placemark>
         <name>冯杨庄</name>
         <styleUrl>#icon-1739-000000-nodesc</styleUrl>
         <Point>
            <coordinates>
          115.6220055,33.8395521,0
        </coordinates>
         </Point>
      </Placemark>
      <Placemark>
         <name>锁庄
</name>
         <styleUrl>#icon-1739-000000-nodesc</styleUrl>
         <Point>
            <coordinates>
          115.7310963,33.7927011,0
        </coordinates>
         </Point>
      </Placemark>
      <Placemark>
         <name>怀庄村
</name>
         <styleUrl>#icon-1739-000000-nodesc</styleUrl>
         <Point>
            <coordinates>
          115.7478333,33.8013316,0
        </coordinates>
         </Point>
      </Placemark>
      <Placemark>
         <name>铁庄</name>
         <styleUrl>#icon-1739-000000-nodesc</styleUrl>
         <Point>
            <coordinates>
          115.7177925,33.7917738,0
        </coordinates>
         </Point>
      </Placemark>
      <Placemark>
         <name>颜庄</name>
         <styleUrl>#icon-1739-000000-nodesc</styleUrl>
         <Point>
            <coordinates>
          115.7214832,33.7727977,0
        </coordinates>
         </Point>
      </Placemark>
      <Placemark>
         <name>贺庄</name>
         <styleUrl>#icon-1739-000000-nodesc</styleUrl>
         <Point>
            <coordinates>
          115.7399368,33.7752235,0
        </coordinates>
         </Point>
      </Placemark>
      <Placemark>
         <name>高刘庄</name>
         <styleUrl>#icon-1739-000000-nodesc</styleUrl>
         <Point>
            <coordinates>
          115.6649208,33.8257919,0
        </coordinates>
         </Point>
      </Placemark>
      <Placemark>
         <name>大方庄</name>
         <styleUrl>#icon-1739-000000-nodesc</styleUrl>
         <Point>
            <coordinates>
          115.6820869,33.8302125,0
        </coordinates>
         </Point>
      </Placemark>
      <Placemark>
         <name>彭庄
</name>
         <styleUrl>#icon-1739-000000-nodesc</styleUrl>
         <Point>
            <coordinates>
          115.6606293,33.8421899,0
        </coordinates>
         </Point>
      </Placemark>
      <Placemark>
         <name>朱小庄</name>
         <styleUrl>#icon-1739-000000-nodesc</styleUrl>
         <Point>
            <coordinates>
          115.7883453,33.603468,0
        </coordinates>
         </Point>
      </Placemark>
      <Placemark>
         <name>小姚庄</name>
         <styleUrl>#icon-1739-000000-nodesc</styleUrl>
         <Point>
            <coordinates>
          115.6570244,33.894571,0
        </coordinates>
         </Point>
      </Placemark>
      <Placemark>
         <name>唐小庄</name>
         <styleUrl>#icon-1739-000000-nodesc</styleUrl>
         <Point>
            <coordinates>
          115.6644058,33.8938586,0
        </coordinates>
         </Point>
      </Placemark>
      <Placemark>
         <name>孟心庄
</name>
         <styleUrl>#icon-1739-000000-nodesc</styleUrl>
         <Point>
            <coordinates>
          115.6884384,33.8944998,0
        </coordinates>
         </Point>
      </Placemark>
      <Placemark>
         <name>董庄</name>
         <styleUrl>#icon-1739-000000-nodesc</styleUrl>
         <Point>
            <coordinates>
          115.6963348,33.8940011,0
        </coordinates>
         </Point>
      </Placemark>
      <Placemark>
         <name>郭大庄</name>
         <styleUrl>#icon-1739-000000-nodesc</styleUrl>
         <Point>
            <coordinates>
          115.6947899,33.9002705,0
        </coordinates>
         </Point>
      </Placemark>
      <Placemark>
         <name>尹庄</name>
         <styleUrl>#icon-1739-000000-nodesc</styleUrl>
         <Point>
            <coordinates>
          115.7013988,33.8931461,0
        </coordinates>
         </Point>
      </Placemark>
      <Placemark>
         <name>史李吴庄</name>
         <styleUrl>#icon-1739-000000-nodesc</styleUrl>
         <Point>
            <coordinates>
          115.7153893,33.8964946,0
        </coordinates>
         </Point>
      </Placemark>
      <Placemark>
         <name>后马庄</name>
         <styleUrl>#icon-1739-000000-nodesc</styleUrl>
         <Point>
            <coordinates>
          115.7272339,33.8939298,0
        </coordinates>
         </Point>
      </Placemark>
      <Placemark>
         <name>赵庄村</name>
         <styleUrl>#icon-1739-000000-nodesc</styleUrl>
         <Point>
            <coordinates>
          115.7229424,33.8917924,0
        </coordinates>
         </Point>
      </Placemark>
      <Placemark>
         <name>落杨庄</name>
         <styleUrl>#icon-1739-000000-nodesc</styleUrl>
         <Point>
            <coordinates>
          115.7130718,33.8821735,0
        </coordinates>
         </Point>
      </Placemark>
      <Placemark>
         <name>崔李庄</name>
         <styleUrl>#icon-1739-000000-nodesc</styleUrl>
         <Point>
            <coordinates>
          115.7213116,33.8766154,0
        </coordinates>
         </Point>
      </Placemark>
      <Placemark>
         <name>后何庄 
</name>
         <styleUrl>#icon-1739-000000-nodesc</styleUrl>
         <Point>
            <coordinates>
          115.7448292,33.8982757,0
        </coordinates>
         </Point>
      </Placemark>
      <Placemark>
         <name>后梁庄
</name>
         <styleUrl>#icon-1739-000000-nodesc</styleUrl>
         <Point>
            <coordinates>
          115.5473328,33.8692753,0
        </coordinates>
         </Point>
      </Placemark>
      <Placemark>
         <name>前梁庄</name>
         <styleUrl>#icon-1739-000000-nodesc</styleUrl>
         <Point>
            <coordinates>
          115.5464745,33.8616495,0
        </coordinates>
         </Point>
      </Placemark>
      <Placemark>
         <name>邓庄村</name>
         <styleUrl>#icon-1739-000000-nodesc</styleUrl>
         <Point>
            <coordinates>
          115.5089664,33.8461819,0
        </coordinates>
         </Point>
      </Placemark>
      <Placemark>
         <name>小张庄</name>
         <styleUrl>#icon-1739-000000-nodesc</styleUrl>
         <Point>
            <coordinates>
          115.5109406,33.839267,0
        </coordinates>
         </Point>
      </Placemark>
      <Placemark>
         <name>薛庄</name>
         <styleUrl>#icon-1739-000000-nodesc</styleUrl>
         <Point>
            <coordinates>
          115.5243301,33.8364153,0
        </coordinates>
         </Point>
      </Placemark>
      <Placemark>
         <name>韩庄
</name>
         <styleUrl>#icon-1739-000000-nodesc</styleUrl>
         <Point>
            <coordinates>
          115.5250168,33.8453978,0
        </coordinates>
         </Point>
      </Placemark>
      <Placemark>
         <name>谢庄</name>
         <styleUrl>#icon-1739-000000-nodesc</styleUrl>
         <Point>
            <coordinates>
          115.5384064,33.8347042,0
        </coordinates>
         </Point>
      </Placemark>
      <Placemark>
         <name>庙东张庄</name>
         <styleUrl>#icon-1739-000000-nodesc</styleUrl>
         <Point>
            <coordinates>
          115.5234718,33.8299273,0
        </coordinates>
         </Point>
      </Placemark>
      <Placemark>
         <name>张朱庄</name>
         <styleUrl>#icon-1739-000000-nodesc</styleUrl>
         <Point>
            <coordinates>
          115.5051899,33.815595,0
        </coordinates>
         </Point>
      </Placemark>
      <Placemark>
         <name>白贡庄</name>
         <styleUrl>#icon-1739-000000-nodesc</styleUrl>
         <Point>
            <coordinates>
          115.5285358,33.8098186,0
        </coordinates>
         </Point>
      </Placemark>
      <Placemark>
         <name>张浅庄</name>
         <styleUrl>#icon-1739-000000-nodesc</styleUrl>
         <Point>
            <coordinates>
          115.5250168,33.8132417,0
        </coordinates>
         </Point>
      </Placemark>
      <Placemark>
         <name>侯庄</name>
         <styleUrl>#icon-1739-000000-nodesc</styleUrl>
         <Point>
            <coordinates>
          115.517807,33.8053969,0
        </coordinates>
         </Point>
      </Placemark>
      <Placemark>
         <name>普小庄村</name>
         <styleUrl>#icon-1739-000000-nodesc</styleUrl>
         <Point>
            <coordinates>
          115.5154896,33.782429,0
        </coordinates>
         </Point>
      </Placemark>
      <Placemark>
         <name>何庄
</name>
         <styleUrl>#icon-1739-000000-nodesc</styleUrl>
         <Point>
            <coordinates>
          115.5257034,33.7991919,0
        </coordinates>
         </Point>
      </Placemark>
      <Placemark>
         <name>前刘庄</name>
         <styleUrl>#icon-1739-000000-nodesc</styleUrl>
         <Point>
            <coordinates>
          115.5343723,33.8190892,0
        </coordinates>
         </Point>
      </Placemark>
      <Placemark>
         <name>普大庄
</name>
         <styleUrl>#icon-1739-000000-nodesc</styleUrl>
         <Point>
            <coordinates>
          115.5059624,33.7731544,0
        </coordinates>
         </Point>
      </Placemark>
      <Placemark>
         <name>余庄</name>
         <styleUrl>#icon-1739-000000-nodesc</styleUrl>
         <Point>
            <coordinates>
          115.522356,33.7723696,0
        </coordinates>
         </Point>
      </Placemark>
      <Placemark>
         <name>李庄</name>
         <styleUrl>#icon-1739-000000-nodesc</styleUrl>
         <Point>
            <coordinates>
          115.5464745,33.8524548,0
        </coordinates>
         </Point>
      </Placemark>
      <Placemark>
         <name>南王庄</name>
         <styleUrl>#icon-1739-000000-nodesc</styleUrl>
         <Point>
            <coordinates>
          115.5408955,33.8452552,0
        </coordinates>
         </Point>
      </Placemark>
      <Placemark>
         <name>大梁庄村</name>
         <styleUrl>#icon-1739-000000-nodesc</styleUrl>
         <Point>
            <coordinates>
          115.5479336,33.8289291,0
        </coordinates>
         </Point>
      </Placemark>
      <Placemark>
         <name>小苏庄</name>
         <styleUrl>#icon-1739-000000-nodesc</styleUrl>
         <Point>
            <coordinates>
          115.5584049,33.824651,0
        </coordinates>
         </Point>
      </Placemark>
      <Placemark>
         <name>陈庄村
</name>
         <styleUrl>#icon-1739-000000-nodesc</styleUrl>
         <Point>
            <coordinates>
          115.5534267,33.816736,0
        </coordinates>
         </Point>
      </Placemark>
      <Placemark>
         <name>小丁庄</name>
         <styleUrl>#icon-1739-000000-nodesc</styleUrl>
         <Point>
            <coordinates>
          115.5648422,33.814668,0
        </coordinates>
         </Point>
      </Placemark>
      <Placemark>
         <name>朱庄</name>
         <styleUrl>#icon-1739-000000-nodesc</styleUrl>
         <Point>
            <coordinates>
          115.5525684,33.7951976,0
        </coordinates>
         </Point>
      </Placemark>
      <Placemark>
         <name>程庄</name>
         <styleUrl>#icon-1739-000000-nodesc</styleUrl>
         <Point>
            <coordinates>
          115.52845,33.7904899,0
        </coordinates>
         </Point>
      </Placemark>
      <Placemark>
         <name>北芦庄</name>
         <styleUrl>#icon-1739-000000-nodesc</styleUrl>
         <Point>
            <coordinates>
          115.5426121,33.7912745,0
        </coordinates>
         </Point>
      </Placemark>
      <Placemark>
         <name>孙庄</name>
         <styleUrl>#icon-1739-000000-nodesc</styleUrl>
         <Point>
            <coordinates>
          115.5222702,33.7686595,0
        </coordinates>
         </Point>
      </Placemark>
      <Placemark>
         <name>大马庄村</name>
         <styleUrl>#icon-1739-000000-nodesc</styleUrl>
         <Point>
            <coordinates>
          115.5091381,33.7572427,0
        </coordinates>
         </Point>
      </Placemark>
      <Placemark>
         <name>武庄</name>
         <styleUrl>#icon-1739-000000-nodesc</styleUrl>
         <Point>
            <coordinates>
          115.5049324,33.7529611,0
        </coordinates>
         </Point>
      </Placemark>
      <Placemark>
         <name>张本庄
</name>
         <styleUrl>#icon-1739-000000-nodesc</styleUrl>
         <Point>
            <coordinates>
          115.5403805,33.7591694,0
        </coordinates>
         </Point>
      </Placemark>
      <Placemark>
         <name>铁塔张庄</name>
         <styleUrl>#icon-1739-000000-nodesc</styleUrl>
         <Point>
            <coordinates>
          115.5182362,33.7474659,0
        </coordinates>
         </Point>
      </Placemark>
      <Placemark>
         <name>赵庄寨</name>
         <styleUrl>#icon-1739-000000-nodesc</styleUrl>
         <Point>
            <coordinates>
          115.5275917,33.7460386,0
        </coordinates>
         </Point>
      </Placemark>
      <Placemark>
         <name>芦庄
</name>
         <styleUrl>#icon-1739-000000-nodesc</styleUrl>
         <Point>
            <coordinates>
          115.5456161,33.7660195,0
        </coordinates>
         </Point>
      </Placemark>
      <Placemark>
         <name>前张庄</name>
         <styleUrl>#icon-1739-000000-nodesc</styleUrl>
         <Point>
            <coordinates>
          115.545187,33.7560296,0
        </coordinates>
         </Point>
      </Placemark>
      <Placemark>
         <name>傅庄</name>
         <styleUrl>#icon-1739-000000-nodesc</styleUrl>
         <Point>
            <coordinates>
          115.5506802,33.7563864,0
        </coordinates>
         </Point>
      </Placemark>
      <Placemark>
         <name>潘庄村</name>
         <styleUrl>#icon-1739-000000-nodesc</styleUrl>
         <Point>
            <coordinates>
          115.5123138,33.7383304,0
        </coordinates>
         </Point>
      </Placemark>
      <Placemark>
         <name>王公庄</name>
         <styleUrl>#icon-1739-000000-nodesc</styleUrl>
         <Point>
            <coordinates>
          115.5182362,33.7381162,0
        </coordinates>
         </Point>
      </Placemark>
      <Placemark>
         <name>落耙头王庄</name>
         <styleUrl>#icon-1739-000000-nodesc</styleUrl>
         <Point>
            <coordinates>
          115.5281925,33.7312639,0
        </coordinates>
         </Point>
      </Placemark>
      <Placemark>
         <name>前郭庄</name>
         <styleUrl>#icon-1739-000000-nodesc</styleUrl>
         <Point>
            <coordinates>
          115.5135155,33.716344,0
        </coordinates>
         </Point>
      </Placemark>
      <Placemark>
         <name>后郑庄</name>
         <styleUrl>#icon-1739-000000-nodesc</styleUrl>
         <Point>
            <coordinates>
          115.518837,33.7211986,0
        </coordinates>
         </Point>
      </Placemark>
      <Placemark>
         <name>前郑庄</name>
         <styleUrl>#icon-1739-000000-nodesc</styleUrl>
         <Point>
            <coordinates>
          115.5210686,33.7197708,0
        </coordinates>
         </Point>
      </Placemark>
      <Placemark>
         <name>石庄</name>
         <styleUrl>#icon-1739-000000-nodesc</styleUrl>
         <Point>
            <coordinates>
          115.5362606,33.7072051,0
        </coordinates>
         </Point>
      </Placemark>
      <Placemark>
         <name>小张庄村</name>
         <styleUrl>#icon-1739-000000-nodesc</styleUrl>
         <Point>
            <coordinates>
          115.5314541,33.7037778,0
        </coordinates>
         </Point>
      </Placemark>
      <Placemark>
         <name>翟庄</name>
         <styleUrl>#icon-1739-000000-nodesc</styleUrl>
         <Point>
            <coordinates>
          115.533514,33.6956373,0
        </coordinates>
         </Point>
      </Placemark>
      <Placemark>
         <name>小古庄
</name>
         <styleUrl>#icon-1739-000000-nodesc</styleUrl>
         <Point>
            <coordinates>
          115.5438996,33.6947804,0
        </coordinates>
         </Point>
      </Placemark>
      <Placemark>
         <name>白庄
</name>
         <styleUrl>#icon-1739-000000-nodesc</styleUrl>
         <Point>
            <coordinates>
          115.5412388,33.6860677,0
        </coordinates>
         </Point>
      </Placemark>
      <Placemark>
         <name>赵庄</name>
         <styleUrl>#icon-1739-000000-nodesc</styleUrl>
         <Point>
            <coordinates>
          115.5133438,33.6787827,0
        </coordinates>
         </Point>
      </Placemark>
      <Placemark>
         <name>大王庄村</name>
         <styleUrl>#icon-1739-000000-nodesc</styleUrl>
         <Point>
            <coordinates>
          115.5459595,33.6817111,0
        </coordinates>
         </Point>
      </Placemark>
      <Placemark>
         <name>中王庄村</name>
         <styleUrl>#icon-1739-000000-nodesc</styleUrl>
         <Point>
            <coordinates>
          115.5035591,33.6733542,0
        </coordinates>
         </Point>
      </Placemark>
      <Placemark>
         <name>谢小庄
</name>
         <styleUrl>#icon-1739-000000-nodesc</styleUrl>
         <Point>
            <coordinates>
          115.5029583,33.6581384,0
        </coordinates>
         </Point>
      </Placemark>
      <Placemark>
         <name>西梁庄
</name>
         <styleUrl>#icon-1739-000000-nodesc</styleUrl>
         <Point>
            <coordinates>
          115.5164337,33.65871,0
        </coordinates>
         </Point>
      </Placemark>
      <Placemark>
         <name>东梁庄</name>
         <styleUrl>#icon-1739-000000-nodesc</styleUrl>
         <Point>
            <coordinates>
          115.5191803,33.6575669,0
        </coordinates>
         </Point>
      </Placemark>
      <Placemark>
         <name>李窑庄</name>
         <styleUrl>#icon-1739-000000-nodesc</styleUrl>
         <Point>
            <coordinates>
          115.5296516,33.6619962,0
        </coordinates>
         </Point>
      </Placemark>
      <Placemark>
         <name>大宋庄</name>
         <styleUrl>#icon-1739-000000-nodesc</styleUrl>
         <Point>
            <coordinates>
          115.5364323,33.6609246,0
        </coordinates>
         </Point>
      </Placemark>
      <Placemark>
         <name>陈庄</name>
         <styleUrl>#icon-1739-000000-nodesc</styleUrl>
         <Point>
            <coordinates>
          115.5373764,33.6772113,0
        </coordinates>
         </Point>
      </Placemark>
      <Placemark>
         <name>魏庄</name>
         <styleUrl>#icon-1739-000000-nodesc</styleUrl>
         <Point>
            <coordinates>
          115.5378914,33.6754971,0
        </coordinates>
         </Point>
      </Placemark>
      <Placemark>
         <name>小王庄</name>
         <styleUrl>#icon-1739-000000-nodesc</styleUrl>
         <Point>
            <coordinates>
          115.5466461,33.6737828,0
        </coordinates>
         </Point>
      </Placemark>
      <Placemark>
         <name>黄庄村</name>
         <styleUrl>#icon-1739-000000-nodesc</styleUrl>
         <Point>
            <coordinates>
          115.5371189,33.6671397,0
        </coordinates>
         </Point>
      </Placemark>
      <Placemark>
         <name>大周庄村</name>
         <styleUrl>#icon-1739-000000-nodesc</styleUrl>
         <Point>
            <coordinates>
          115.5481911,33.6679969,0
        </coordinates>
         </Point>
      </Placemark>
      <Placemark>
         <name>倪李庄</name>
         <styleUrl>#icon-1739-000000-nodesc</styleUrl>
         <Point>
            <coordinates>
          115.5136871,33.6476358,0
        </coordinates>
         </Point>
      </Placemark>
      <Placemark>
         <name>赵庄村</name>
         <styleUrl>#icon-1739-000000-nodesc</styleUrl>
         <Point>
            <coordinates>
          115.5360889,33.6491363,0
        </coordinates>
         </Point>
      </Placemark>
      <Placemark>
         <name>尹庄</name>
         <styleUrl>#icon-1739-000000-nodesc</styleUrl>
         <Point>
            <coordinates>
          115.5410671,33.6460639,0
        </coordinates>
         </Point>
      </Placemark>
      <Placemark>
         <name>翟庄</name>
         <styleUrl>#icon-1739-000000-nodesc</styleUrl>
         <Point>
            <coordinates>
          115.5275059,33.6336304,0
        </coordinates>
         </Point>
      </Placemark>
      <Placemark>
         <name>程庄</name>
         <styleUrl>#icon-1739-000000-nodesc</styleUrl>
         <Point>
            <coordinates>
          115.5335999,33.6357027,0
        </coordinates>
         </Point>
      </Placemark>
      <Placemark>
         <name>董庄</name>
         <styleUrl>#icon-1739-000000-nodesc</styleUrl>
         <Point>
            <coordinates>
          115.5464745,33.6367032,0
        </coordinates>
         </Point>
      </Placemark>
      <Placemark>
         <name>大杨庄</name>
         <styleUrl>#icon-1739-000000-nodesc</styleUrl>
         <Point>
            <coordinates>
          115.5433846,33.6311291,0
        </coordinates>
         </Point>
      </Placemark>
      <Placemark>
         <name>磨王庄村</name>
         <styleUrl>#icon-1739-000000-nodesc</styleUrl>
         <Point>
            <coordinates>
          115.5543709,33.6422054,0
        </coordinates>
         </Point>
      </Placemark>
      <Placemark>
         <name>周李庄</name>
         <styleUrl>#icon-1739-000000-nodesc</styleUrl>
         <Point>
            <coordinates>
          115.5606365,33.630486,0
        </coordinates>
         </Point>
      </Placemark>
      <Placemark>
         <name>小崔庄</name>
         <styleUrl>#icon-1739-000000-nodesc</styleUrl>
         <Point>
            <coordinates>
          115.5644989,33.6296998,0
        </coordinates>
         </Point>
      </Placemark>
      <Placemark>
         <name>关陈庄</name>
         <styleUrl>#icon-1739-000000-nodesc</styleUrl>
         <Point>
            <coordinates>
          115.5792618,33.6384182,0
        </coordinates>
         </Point>
      </Placemark>
      <Placemark>
         <name>付刘庄</name>
         <styleUrl>#icon-1739-000000-nodesc</styleUrl>
         <Point>
            <coordinates>
          115.5850983,33.6287708,0
        </coordinates>
         </Point>
      </Placemark>
      <Placemark>
         <name>小刁庄</name>
         <styleUrl>#icon-1739-000000-nodesc</styleUrl>
         <Point>
            <coordinates>
          115.5949688,33.6321296,0
        </coordinates>
         </Point>
      </Placemark>
      <Placemark>
         <name>齐庄</name>
         <styleUrl>#icon-1739-000000-nodesc</styleUrl>
         <Point>
            <coordinates>
          115.5663872,33.6477787,0
        </coordinates>
         </Point>
      </Placemark>
      <Placemark>
         <name>徐小庄</name>
         <styleUrl>#icon-1739-000000-nodesc</styleUrl>
         <Point>
            <coordinates>
          115.5627823,33.6582099,0
        </coordinates>
         </Point>
      </Placemark>
      <Placemark>
         <name>张庄村</name>
         <styleUrl>#icon-1739-000000-nodesc</styleUrl>
         <Point>
            <coordinates>
          115.5972004,33.6310577,0
        </coordinates>
         </Point>
      </Placemark>
      <Placemark>
         <name>邹庄</name>
         <styleUrl>#icon-1739-000000-nodesc</styleUrl>
         <Point>
            <coordinates>
          115.632391,33.6021097,0
        </coordinates>
         </Point>
      </Placemark>
      <Placemark>
         <name>小马庄</name>
         <styleUrl>#icon-1739-000000-nodesc</styleUrl>
         <Point>
            <coordinates>
          115.6406307,33.6027531,0
        </coordinates>
         </Point>
      </Placemark>
      <Placemark>
         <name>小武庄</name>
         <styleUrl>#icon-1739-000000-nodesc</styleUrl>
         <Point>
            <coordinates>
          115.6078434,33.6033965,0
        </coordinates>
         </Point>
      </Placemark>
      <Placemark>
         <name>熊庄</name>
         <styleUrl>#icon-1739-000000-nodesc</styleUrl>
         <Point>
            <coordinates>
          115.5996037,33.6051837,0
        </coordinates>
         </Point>
      </Placemark>
      <Placemark>
         <name>小梁庄</name>
         <styleUrl>#icon-1739-000000-nodesc</styleUrl>
         <Point>
            <coordinates>
          115.6027794,33.6275559,0
        </coordinates>
         </Point>
      </Placemark>
      <Placemark>
         <name>王小庄</name>
         <styleUrl>#icon-1739-000000-nodesc</styleUrl>
         <Point>
            <coordinates>
          115.6293869,33.6192652,0
        </coordinates>
         </Point>
      </Placemark>
      <Placemark>
         <name>小杨庄</name>
         <styleUrl>#icon-1739-000000-nodesc</styleUrl>
         <Point>
            <coordinates>
          115.5372906,33.6208377,0
        </coordinates>
         </Point>
      </Placemark>
      <Placemark>
         <name>师庄</name>
         <styleUrl>#icon-1739-000000-nodesc</styleUrl>
         <Point>
            <coordinates>
          115.5418396,33.6151911,0
        </coordinates>
         </Point>
      </Placemark>
      <Placemark>
         <name>韩庄村</name>
         <styleUrl>#icon-1739-000000-nodesc</styleUrl>
         <Point>
            <coordinates>
          115.5402088,33.6121175,0
        </coordinates>
         </Point>
      </Placemark>
      <Placemark>
         <name>仵庄</name>
         <styleUrl>#icon-1739-000000-nodesc</styleUrl>
         <Point>
            <coordinates>
          115.534029,33.6053981,0
        </coordinates>
         </Point>
      </Placemark>
      <Placemark>
         <name>后于庄</name>
         <styleUrl>#icon-1739-000000-nodesc</styleUrl>
         <Point>
            <coordinates>
          115.5533409,33.6214809,0
        </coordinates>
         </Point>
      </Placemark>
      <Placemark>
         <name>前余庄
</name>
         <styleUrl>#icon-1739-000000-nodesc</styleUrl>
         <Point>
            <coordinates>
          115.5523968,33.6157629,0
        </coordinates>
         </Point>
      </Placemark>
      <Placemark>
         <name>后苏庄</name>
         <styleUrl>#icon-1739-000000-nodesc</styleUrl>
         <Point>
            <coordinates>
          115.5556583,33.6126179,0
        </coordinates>
         </Point>
      </Placemark>
      <Placemark>
         <name>仵庄村</name>
         <styleUrl>#icon-1739-000000-nodesc</styleUrl>
         <Point>
            <coordinates>
          115.5529976,33.6101161,0
        </coordinates>
         </Point>
      </Placemark>
      <Placemark>
         <name>苏王庄</name>
         <styleUrl>#icon-1739-000000-nodesc</styleUrl>
         <Point>
            <coordinates>
          115.5530834,33.6028246,0
        </coordinates>
         </Point>
      </Placemark>
      <Placemark>
         <name>后安庄</name>
         <styleUrl>#icon-1739-000000-nodesc</styleUrl>
         <Point>
            <coordinates>
          115.5627823,33.6035395,0
        </coordinates>
         </Point>
      </Placemark>
      <Placemark>
         <name>大李庄</name>
         <styleUrl>#icon-1739-000000-nodesc</styleUrl>
         <Point>
            <coordinates>
          115.5577183,33.6057556,0
        </coordinates>
         </Point>
      </Placemark>
      <Placemark>
         <name>前苏庄
</name>
         <styleUrl>#icon-1739-000000-nodesc</styleUrl>
         <Point>
            <coordinates>
          115.5566883,33.6092583,0
        </coordinates>
         </Point>
      </Placemark>
      <Placemark>
         <name>英杨庄</name>
         <styleUrl>#icon-1739-000000-nodesc</styleUrl>
         <Point>
            <coordinates>
          115.5638981,33.6140475,0
        </coordinates>
         </Point>
      </Placemark>
      <Placemark>
         <name>大陈庄
</name>
         <styleUrl>#icon-1739-000000-nodesc</styleUrl>
         <Point>
            <coordinates>
          115.5631256,33.6190508,0
        </coordinates>
         </Point>
      </Placemark>
      <Placemark>
         <name>小陈庄</name>
         <styleUrl>#icon-1739-000000-nodesc</styleUrl>
         <Point>
            <coordinates>
          115.5673313,33.6175498,0
        </coordinates>
         </Point>
      </Placemark>
      <Placemark>
         <name>小刘庄</name>
         <styleUrl>#icon-1739-000000-nodesc</styleUrl>
         <Point>
            <coordinates>
          115.5706787,33.6189793,0
        </coordinates>
         </Point>
      </Placemark>
      <Placemark>
         <name>前段庄</name>
         <styleUrl>#icon-1739-000000-nodesc</styleUrl>
         <Point>
            <coordinates>
          115.5773735,33.6026101,0
        </coordinates>
         </Point>
      </Placemark>
      <Placemark>
         <name>后段庄</name>
         <styleUrl>#icon-1739-000000-nodesc</styleUrl>
         <Point>
            <coordinates>
          115.5735111,33.6071138,0
        </coordinates>
         </Point>
      </Placemark>
      <Placemark>
         <name>唐庄</name>
         <styleUrl>#icon-1739-000000-nodesc</styleUrl>
         <Point>
            <coordinates>
          115.5951405,33.6186934,0
        </coordinates>
         </Point>
      </Placemark>
      <Placemark>
         <name>齐小庄</name>
         <styleUrl>#icon-1739-000000-nodesc</styleUrl>
         <Point>
            <coordinates>
          115.5953979,33.6063274,0
        </coordinates>
         </Point>
      </Placemark>
      <Placemark>
         <name>大梁庄</name>
         <styleUrl>#icon-1739-000000-nodesc</styleUrl>
         <Point>
            <coordinates>
          115.5987453,33.6289852,0
        </coordinates>
         </Point>
      </Placemark>
      <Placemark>
         <name>北王庄</name>
         <styleUrl>#icon-1739-000000-nodesc</styleUrl>
         <Point>
            <coordinates>
          115.6068993,33.636989,0
        </coordinates>
         </Point>
      </Placemark>
      <Placemark>
         <name>王老庄村</name>
         <styleUrl>#icon-1739-000000-nodesc</styleUrl>
         <Point>
            <coordinates>
          115.6319618,33.6153341,0
        </coordinates>
         </Point>
      </Placemark>
      <Placemark>
         <name>王新庄</name>
         <styleUrl>#icon-1739-000000-nodesc</styleUrl>
         <Point>
            <coordinates>
          115.632906,33.6124749,0
        </coordinates>
         </Point>
      </Placemark>
      <Placemark>
         <name>王陶庄
</name>
         <styleUrl>#icon-1739-000000-nodesc</styleUrl>
         <Point>
            <coordinates>
          115.6517029,33.6038254,0
        </coordinates>
         </Point>
      </Placemark>
      <Placemark>
         <name>庙李庄</name>
         <styleUrl>#icon-1739-000000-nodesc</styleUrl>
         <Point>
            <coordinates>
          115.6529045,33.5995361,0
        </coordinates>
         </Point>
      </Placemark>
      <Placemark>
         <name>大左庄</name>
         <styleUrl>#icon-1739-000000-nodesc</styleUrl>
         <Point>
            <coordinates>
          115.6589127,33.5997506,0
        </coordinates>
         </Point>
      </Placemark>
      <Placemark>
         <name>马王庄
</name>
         <styleUrl>#icon-1739-000000-nodesc</styleUrl>
         <Point>
            <coordinates>
          115.6454372,33.6179072,0
        </coordinates>
         </Point>
      </Placemark>
      <Placemark>
         <name>华庄
</name>
         <styleUrl>#icon-1739-000000-nodesc</styleUrl>
         <Point>
            <coordinates>
          115.625267,33.6322011,0
        </coordinates>
         </Point>
      </Placemark>
      <Placemark>
         <name>刘庄村</name>
         <styleUrl>#icon-1739-000000-nodesc</styleUrl>
         <Point>
            <coordinates>
          115.6341076,33.6278417,0
        </coordinates>
         </Point>
      </Placemark>
      <Placemark>
         <name>纪庄</name>
         <styleUrl>#icon-1739-000000-nodesc</styleUrl>
         <Point>
            <coordinates>
          115.6198597,33.6391328,0
        </coordinates>
         </Point>
      </Placemark>
      <Placemark>
         <name>徐庄</name>
         <styleUrl>#icon-1739-000000-nodesc</styleUrl>
         <Point>
            <coordinates>
          115.5984879,33.6427771,0
        </coordinates>
         </Point>
      </Placemark>
      <Placemark>
         <name>冀庄</name>
         <styleUrl>#icon-1739-000000-nodesc</styleUrl>
         <Point>
            <coordinates>
          115.619173,33.6426341,0
        </coordinates>
         </Point>
      </Placemark>
      <Placemark>
         <name>钱老庄
</name>
         <styleUrl>#icon-1739-000000-nodesc</styleUrl>
         <Point>
            <coordinates>
          115.6353951,33.635274,0
        </coordinates>
         </Point>
      </Placemark>
      <Placemark>
         <name>魏老庄</name>
         <styleUrl>#icon-1739-000000-nodesc</styleUrl>
         <Point>
            <coordinates>
          115.6476688,33.6319867,0
        </coordinates>
         </Point>
      </Placemark>
      <Placemark>
         <name>范庄村</name>
         <styleUrl>#icon-1739-000000-nodesc</styleUrl>
         <Point>
            <coordinates>
          115.6466389,33.6256977,0
        </coordinates>
         </Point>
      </Placemark>
      <Placemark>
         <name>罗王庄
</name>
         <styleUrl>#icon-1739-000000-nodesc</styleUrl>
         <Point>
            <coordinates>
          115.6312752,33.6462068,0
        </coordinates>
         </Point>
      </Placemark>
      <Placemark>
         <name>马庄</name>
         <styleUrl>#icon-1739-000000-nodesc</styleUrl>
         <Point>
            <coordinates>
          115.642004,33.6454208,0
        </coordinates>
         </Point>
      </Placemark>
      <Placemark>
         <name>刘小庄</name>
         <styleUrl>#icon-1739-000000-nodesc</styleUrl>
         <Point>
            <coordinates>
          115.5467319,33.7697298,0
        </coordinates>
         </Point>
      </Placemark>
      <Placemark>
         <name>小周庄</name>
         <styleUrl>#icon-1739-000000-nodesc</styleUrl>
         <Point>
            <coordinates>
          115.5707645,33.7568859,0
        </coordinates>
         </Point>
      </Placemark>
      <Placemark>
         <name>钟庄村</name>
         <styleUrl>#icon-1739-000000-nodesc</styleUrl>
         <Point>
            <coordinates>
          115.5486202,33.7534606,0
        </coordinates>
         </Point>
      </Placemark>
      <Placemark>
         <name>韩庄</name>
         <styleUrl>#icon-1739-000000-nodesc</styleUrl>
         <Point>
            <coordinates>
          115.5516243,33.751177,0
        </coordinates>
         </Point>
      </Placemark>
      <Placemark>
         <name>罗庄
</name>
         <styleUrl>#icon-1739-000000-nodesc</styleUrl>
         <Point>
            <coordinates>
          115.5669022,33.7638789,0
        </coordinates>
         </Point>
      </Placemark>
      <Placemark>
         <name>小谷庄村</name>
         <styleUrl>#icon-1739-000000-nodesc</styleUrl>
         <Point>
            <coordinates>
          115.5312824,33.7359749,0
        </coordinates>
         </Point>
      </Placemark>
      <Placemark>
         <name>大张庄村</name>
         <styleUrl>#icon-1739-000000-nodesc</styleUrl>
         <Point>
            <coordinates>
          115.5540276,33.7191996,0
        </coordinates>
         </Point>
      </Placemark>
      <Placemark>
         <name>赵石庄</name>
         <styleUrl>#icon-1739-000000-nodesc</styleUrl>
         <Point>
            <coordinates>
          115.5480194,33.7184143,0
        </coordinates>
         </Point>
      </Placemark>
      <Placemark>
         <name>刘胡庄</name>
         <styleUrl>#icon-1739-000000-nodesc</styleUrl>
         <Point>
            <coordinates>
          115.541153,33.72127,0
        </coordinates>
         </Point>
      </Placemark>
      <Placemark>
         <name>杜庄</name>
         <styleUrl>#icon-1739-000000-nodesc</styleUrl>
         <Point>
            <coordinates>
          115.572567,33.7183429,0
        </coordinates>
         </Point>
      </Placemark>
      <Placemark>
         <name>赵小庄</name>
         <styleUrl>#icon-1739-000000-nodesc</styleUrl>
         <Point>
            <coordinates>
          115.5743694,33.7137023,0
        </coordinates>
         </Point>
      </Placemark>
      <Placemark>
         <name>赵王庄</name>
         <styleUrl>#icon-1739-000000-nodesc</styleUrl>
         <Point>
            <coordinates>
          115.5694771,33.704706,0
        </coordinates>
         </Point>
      </Placemark>
      <Placemark>
         <name>西刘庄</name>
         <styleUrl>#icon-1739-000000-nodesc</styleUrl>
         <Point>
            <coordinates>
          115.5748844,33.6965656,0
        </coordinates>
         </Point>
      </Placemark>
      <Placemark>
         <name>小安庄</name>
         <styleUrl>#icon-1739-000000-nodesc</styleUrl>
         <Point>
            <coordinates>
          115.578146,33.7373311,0
        </coordinates>
         </Point>
      </Placemark>
      <Placemark>
         <name>小安庄村
</name>
         <styleUrl>#icon-1739-000000-nodesc</styleUrl>
         <Point>
            <coordinates>
          115.5813217,33.7386872,0
        </coordinates>
         </Point>
      </Placemark>
      <Placemark>
         <name>滕小庄</name>
         <styleUrl>#icon-1739-000000-nodesc</styleUrl>
         <Point>
            <coordinates>
          115.5844975,33.7433979,0
        </coordinates>
         </Point>
      </Placemark>
      <Placemark>
         <name>曹庄
</name>
         <styleUrl>#icon-1739-000000-nodesc</styleUrl>
         <Point>
            <coordinates>
          115.5702496,33.7708713,0
        </coordinates>
         </Point>
      </Placemark>
      <Placemark>
         <name>宋庄
</name>
         <styleUrl>#icon-1739-000000-nodesc</styleUrl>
         <Point>
            <coordinates>
          115.5848408,33.7698011,0
        </coordinates>
         </Point>
      </Placemark>
      <Placemark>
         <name>前辛庄</name>
         <styleUrl>#icon-1739-000000-nodesc</styleUrl>
         <Point>
            <coordinates>
          115.5773735,33.7722269,0
        </coordinates>
         </Point>
      </Placemark>
      <Placemark>
         <name>彭庄</name>
         <styleUrl>#icon-1739-000000-nodesc</styleUrl>
         <Point>
            <coordinates>
          115.5831242,33.782429,0
        </coordinates>
         </Point>
      </Placemark>
      <Placemark>
         <name>肖庄</name>
         <styleUrl>#icon-1739-000000-nodesc</styleUrl>
         <Point>
            <coordinates>
          115.578146,33.7892772,0
        </coordinates>
         </Point>
      </Placemark>
      <Placemark>
         <name>翁庄</name>
         <styleUrl>#icon-1739-000000-nodesc</styleUrl>
         <Point>
            <coordinates>
          115.5956554,33.778862,0
        </coordinates>
         </Point>
      </Placemark>
      <Placemark>
         <name>耿庄</name>
         <styleUrl>#icon-1739-000000-nodesc</styleUrl>
         <Point>
            <coordinates>
          115.5901623,33.7942704,0
        </coordinates>
         </Point>
      </Placemark>
      <Placemark>
         <name>夏小庄
</name>
         <styleUrl>#icon-1739-000000-nodesc</styleUrl>
         <Point>
            <coordinates>
          115.565958,33.8102465,0
        </coordinates>
         </Point>
      </Placemark>
      <Placemark>
         <name>后薛庄</name>
         <styleUrl>#icon-1739-000000-nodesc</styleUrl>
         <Point>
            <coordinates>
          115.5572891,33.7842838,0
        </coordinates>
         </Point>
      </Placemark>
      <Placemark>
         <name>张小庄</name>
         <styleUrl>#icon-1739-000000-nodesc</styleUrl>
         <Point>
            <coordinates>
          115.5663013,33.7731544,0
        </coordinates>
         </Point>
      </Placemark>
      <Placemark>
         <name>孙大庄村
</name>
         <styleUrl>#icon-1739-000000-nodesc</styleUrl>
         <Point>
            <coordinates>
          115.5826092,33.772655,0
        </coordinates>
         </Point>
      </Placemark>
      <Placemark>
         <name>大刁庄</name>
         <styleUrl>#icon-1739-000000-nodesc</styleUrl>
         <Point>
            <coordinates>
          115.6045818,33.769373,0
        </coordinates>
         </Point>
      </Placemark>
      <Placemark>
         <name>双刘庄</name>
         <styleUrl>#icon-1739-000000-nodesc</styleUrl>
         <Point>
            <coordinates>
          115.6119633,33.749036,0
        </coordinates>
         </Point>
      </Placemark>
      <Placemark>
         <name>韩庄村</name>
         <styleUrl>#icon-1739-000000-nodesc</styleUrl>
         <Point>
            <coordinates>
          115.6032944,33.7486078,0
        </coordinates>
         </Point>
      </Placemark>
      <Placemark>
         <name>门庄</name>
         <styleUrl>#icon-1739-000000-nodesc</styleUrl>
         <Point>
            <coordinates>
          115.6299019,33.7619523,0
        </coordinates>
         </Point>
      </Placemark>
      <Placemark>
         <name>唐庄
</name>
         <styleUrl>#icon-1739-000000-nodesc</styleUrl>
         <Point>
            <coordinates>
          115.6352234,33.7653773,0
        </coordinates>
         </Point>
      </Placemark>
      <Placemark>
         <name>东马庄</name>
         <styleUrl>#icon-1739-000000-nodesc</styleUrl>
         <Point>
            <coordinates>
          115.5960846,33.7283372,0
        </coordinates>
         </Point>
      </Placemark>
      <Placemark>
         <name>大安庄</name>
         <styleUrl>#icon-1739-000000-nodesc</styleUrl>
         <Point>
            <coordinates>
          115.5797768,33.7257674,0
        </coordinates>
         </Point>
      </Placemark>
      <Placemark>
         <name>樊庄</name>
         <styleUrl>#icon-1739-000000-nodesc</styleUrl>
         <Point>
            <coordinates>
          115.5836391,33.7223408,0
        </coordinates>
         </Point>
      </Placemark>
      <Placemark>
         <name>卞庄村</name>
         <styleUrl>#icon-1739-000000-nodesc</styleUrl>
         <Point>
            <coordinates>
          115.6027794,33.7229833,0
        </coordinates>
         </Point>
      </Placemark>
      <Placemark>
         <name>邢庄
</name>
         <styleUrl>#icon-1739-000000-nodesc</styleUrl>
         <Point>
            <coordinates>
          115.620203,33.7496783,0
        </coordinates>
         </Point>
      </Placemark>
      <Placemark>
         <name>柴庄</name>
         <styleUrl>#icon-1739-000000-nodesc</styleUrl>
         <Point>
            <coordinates>
          115.6143665,33.7360463,0
        </coordinates>
         </Point>
      </Placemark>
      <Placemark>
         <name>付庄村</name>
         <styleUrl>#icon-1739-000000-nodesc</styleUrl>
         <Point>
            <coordinates>
          115.5899906,33.7123458,0
        </coordinates>
         </Point>
      </Placemark>
      <Placemark>
         <name>洼子窝王庄</name>
         <styleUrl>#icon-1739-000000-nodesc</styleUrl>
         <Point>
            <coordinates>
          115.611105,33.7102396,0
        </coordinates>
         </Point>
      </Placemark>
      <Placemark>
         <name>小赵庄</name>
         <styleUrl>#icon-1739-000000-nodesc</styleUrl>
         <Point>
            <coordinates>
          115.605011,33.7077049,0
        </coordinates>
         </Point>
      </Placemark>
      <Placemark>
         <name>押庄</name>
         <styleUrl>#icon-1739-000000-nodesc</styleUrl>
         <Point>
            <coordinates>
          115.5957842,33.7054914,0
        </coordinates>
         </Point>
      </Placemark>
      <Placemark>
         <name>前梁庄</name>
         <styleUrl>#icon-1739-000000-nodesc</styleUrl>
         <Point>
            <coordinates>
          115.6051397,33.7045989,0
        </coordinates>
         </Point>
      </Placemark>
      <Placemark>
         <name>东刘庄</name>
         <styleUrl>#icon-1739-000000-nodesc</styleUrl>
         <Point>
            <coordinates>
          115.5855274,33.6948161,0
        </coordinates>
         </Point>
      </Placemark>
      <Placemark>
         <name>小高庄</name>
         <styleUrl>#icon-1739-000000-nodesc</styleUrl>
         <Point>
            <coordinates>
          115.5741978,33.6833895,0
        </coordinates>
         </Point>
      </Placemark>
      <Placemark>
         <name>大高庄</name>
         <styleUrl>#icon-1739-000000-nodesc</styleUrl>
         <Point>
            <coordinates>
          115.5774164,33.6799969,0
        </coordinates>
         </Point>
      </Placemark>
      <Placemark>
         <name>大东庄</name>
         <styleUrl>#icon-1739-000000-nodesc</styleUrl>
         <Point>
            <coordinates>
          115.7964134,33.7347615,0
        </coordinates>
         </Point>
      </Placemark>
      <Placemark>
         <name>小姜庄
</name>
         <styleUrl>#icon-1739-000000-nodesc</styleUrl>
         <Point>
            <coordinates>
          115.8002758,33.7555301,0
        </coordinates>
         </Point>
      </Placemark>
      <Placemark>
         <name>小赵庄
</name>
         <styleUrl>#icon-1739-000000-nodesc</styleUrl>
         <Point>
            <coordinates>
          115.7835388,33.7599544,0
        </coordinates>
         </Point>
      </Placemark>
      <Placemark>
         <name>张老庄村</name>
         <styleUrl>#icon-1739-000000-nodesc</styleUrl>
         <Point>
            <coordinates>
          115.7775307,33.7610247,0
        </coordinates>
         </Point>
      </Placemark>
      <Placemark>
         <name>袁老庄</name>
         <styleUrl>#icon-1739-000000-nodesc</styleUrl>
         <Point>
            <coordinates>
          115.7734108,33.7572427,0
        </coordinates>
         </Point>
      </Placemark>
      <Placemark>
         <name>许王庄</name>
         <styleUrl>#icon-1739-000000-nodesc</styleUrl>
         <Point>
            <coordinates>
          115.7816505,33.7520333,0
        </coordinates>
         </Point>
      </Placemark>
      <Placemark>
         <name>袁小庄</name>
         <styleUrl>#icon-1739-000000-nodesc</styleUrl>
         <Point>
            <coordinates>
          115.7674026,33.7551733,0
        </coordinates>
         </Point>
      </Placemark>
      <Placemark>
         <name>郭庄</name>
         <styleUrl>#icon-1739-000000-nodesc</styleUrl>
         <Point>
            <coordinates>
          115.7853413,33.7812162,0
        </coordinates>
         </Point>
      </Placemark>
      <Placemark>
         <name>李庄村</name>
         <styleUrl>#icon-1739-000000-nodesc</styleUrl>
         <Point>
            <coordinates>
          115.6904125,33.6788541,0
        </coordinates>
         </Point>
      </Placemark>
      <Placemark>
         <name>田庄
</name>
         <styleUrl>#icon-1739-000000-nodesc</styleUrl>
         <Point>
            <coordinates>
          115.685606,33.6860677,0
        </coordinates>
         </Point>
      </Placemark>
      <Placemark>
         <name>卞老庄</name>
         <styleUrl>#icon-1739-000000-nodesc</styleUrl>
         <Point>
            <coordinates>
          115.6801128,33.6932807,0
        </coordinates>
         </Point>
      </Placemark>
      <Placemark>
         <name>卞岗庄</name>
         <styleUrl>#icon-1739-000000-nodesc</styleUrl>
         <Point>
            <coordinates>
          115.6621742,33.7011358,0
        </coordinates>
         </Point>
      </Placemark>
      <Placemark>
         <name>小董庄
</name>
         <styleUrl>#icon-1739-000000-nodesc</styleUrl>
         <Point>
            <coordinates>
          115.6660366,33.7012786,0
        </coordinates>
         </Point>
      </Placemark>
      <Placemark>
         <name>大董庄</name>
         <styleUrl>#icon-1739-000000-nodesc</styleUrl>
         <Point>
            <coordinates>
          115.670929,33.7016356,0
        </coordinates>
         </Point>
      </Placemark>
      <Placemark>
         <name>申大庄</name>
         <styleUrl>#icon-1739-000000-nodesc</styleUrl>
         <Point>
            <coordinates>
          115.6675816,33.693495,0
        </coordinates>
         </Point>
      </Placemark>
      <Placemark>
         <name>王田庄</name>
         <styleUrl>#icon-1739-000000-nodesc</styleUrl>
         <Point>
            <coordinates>
          115.6511021,33.7051344,0
        </coordinates>
         </Point>
      </Placemark>
      <Placemark>
         <name>路卞庄</name>
         <styleUrl>#icon-1739-000000-nodesc</styleUrl>
         <Point>
            <coordinates>
          115.6555653,33.704349,0
        </coordinates>
         </Point>
      </Placemark>
      <Placemark>
         <name>范庄
</name>
         <styleUrl>#icon-1739-000000-nodesc</styleUrl>
         <Point>
            <coordinates>
          115.700798,33.7047774,0
        </coordinates>
         </Point>
      </Placemark>
      <Placemark>
         <name>樊王庄</name>
         <styleUrl>#icon-1739-000000-nodesc</styleUrl>
         <Point>
            <coordinates>
          115.7135439,33.7100254,0
        </coordinates>
         </Point>
      </Placemark>
      <Placemark>
         <name>卜庄</name>
         <styleUrl>#icon-1739-000000-nodesc</styleUrl>
         <Point>
            <coordinates>
          115.7117844,33.6862106,0
        </coordinates>
         </Point>
      </Placemark>
      <Placemark>
         <name>屈大庄</name>
         <styleUrl>#icon-1739-000000-nodesc</styleUrl>
         <Point>
            <coordinates>
          115.6982231,33.6939948,0
        </coordinates>
         </Point>
      </Placemark>
      <Placemark>
         <name>孙大庄</name>
         <styleUrl>#icon-1739-000000-nodesc</styleUrl>
         <Point>
            <coordinates>
          115.7070637,33.7368315,0
        </coordinates>
         </Point>
      </Placemark>
      <Placemark>
         <name>南王庄村</name>
         <styleUrl>#icon-1739-000000-nodesc</styleUrl>
         <Point>
            <coordinates>
          115.7045746,33.733905,0
        </coordinates>
         </Point>
      </Placemark>
      <Placemark>
         <name>前孙小庄
</name>
         <styleUrl>#icon-1739-000000-nodesc</styleUrl>
         <Point>
            <coordinates>
          115.7088661,33.7316208,0
        </coordinates>
         </Point>
      </Placemark>
      <Placemark>
         <name>孙新庄</name>
         <styleUrl>#icon-1739-000000-nodesc</styleUrl>
         <Point>
            <coordinates>
          115.6881809,33.767732,0
        </coordinates>
         </Point>
      </Placemark>
      <Placemark>
         <name>张岳庄</name>
         <styleUrl>#icon-1739-000000-nodesc</styleUrl>
         <Point>
            <coordinates>
          115.6659508,33.774296,0
        </coordinates>
         </Point>
      </Placemark>
      <Placemark>
         <name>倪庄</name>
         <styleUrl>#icon-1739-000000-nodesc</styleUrl>
         <Point>
            <coordinates>
          115.5374622,33.6592815,0
        </coordinates>
         </Point>
      </Placemark>
      <Placemark>
         <name>小周庄</name>
         <styleUrl>#icon-1739-000000-nodesc</styleUrl>
         <Point>
            <coordinates>
          115.5424404,33.659353,0
        </coordinates>
         </Point>
      </Placemark>
      <Placemark>
         <name>胡庄</name>
         <styleUrl>#icon-1739-000000-nodesc</styleUrl>
         <Point>
            <coordinates>
          115.5421829,33.6572811,0
        </coordinates>
         </Point>
      </Placemark>
      <Placemark>
         <name>黄庄</name>
         <styleUrl>#icon-1739-000000-nodesc</styleUrl>
         <Point>
            <coordinates>
          115.5459595,33.657424,0
        </coordinates>
         </Point>
      </Placemark>
      <Placemark>
         <name>刘胡庄村</name>
         <styleUrl>#icon-1739-000000-nodesc</styleUrl>
         <Point>
            <coordinates>
          115.5794334,33.6582813,0
        </coordinates>
         </Point>
      </Placemark>
      <Placemark>
         <name>小孟庄
</name>
         <styleUrl>#icon-1739-000000-nodesc</styleUrl>
         <Point>
            <coordinates>
          115.5869865,33.6527801,0
        </coordinates>
         </Point>
      </Placemark>
      <Placemark>
         <name>东小周庄
</name>
         <styleUrl>#icon-1739-000000-nodesc</styleUrl>
         <Point>
            <coordinates>
          115.5758286,33.6723542,0
        </coordinates>
         </Point>
      </Placemark>
      <Placemark>
         <name>古庄</name>
         <styleUrl>#icon-1739-000000-nodesc</styleUrl>
         <Point>
            <coordinates>
          115.5620956,33.6887102,0
        </coordinates>
         </Point>
      </Placemark>
      <Placemark>
         <name>徐庄
</name>
         <styleUrl>#icon-1739-000000-nodesc</styleUrl>
         <Point>
            <coordinates>
          115.6202888,33.7127742,0
        </coordinates>
         </Point>
      </Placemark>
      <Placemark>
         <name>田小庄</name>
         <styleUrl>#icon-1739-000000-nodesc</styleUrl>
         <Point>
            <coordinates>
          115.6274986,33.7149875,0
        </coordinates>
         </Point>
      </Placemark>
      <Placemark>
         <name>解庄</name>
         <styleUrl>#icon-1739-000000-nodesc</styleUrl>
         <Point>
            <coordinates>
          115.6396866,33.7040634,0
        </coordinates>
         </Point>
      </Placemark>
      <Placemark>
         <name>小任庄</name>
         <styleUrl>#icon-1739-000000-nodesc</styleUrl>
         <Point>
            <coordinates>
          115.610075,33.6919953,0
        </coordinates>
         </Point>
      </Placemark>
      <Placemark>
         <name>前卞庄
</name>
         <styleUrl>#icon-1739-000000-nodesc</styleUrl>
         <Point>
            <coordinates>
          115.6539345,33.6877103,0
        </coordinates>
         </Point>
      </Placemark>
      <Placemark>
         <name>卞庄</name>
         <styleUrl>#icon-1739-000000-nodesc</styleUrl>
         <Point>
            <coordinates>
          115.6153965,33.6804255,0
        </coordinates>
         </Point>
      </Placemark>
      <Placemark>
         <name>小楼庄</name>
         <styleUrl>#icon-1739-000000-nodesc</styleUrl>
         <Point>
            <coordinates>
          115.6016636,33.6802826,0
        </coordinates>
         </Point>
      </Placemark>
      <Placemark>
         <name>路小庄</name>
         <styleUrl>#icon-1739-000000-nodesc</styleUrl>
         <Point>
            <coordinates>
          115.6420898,33.6852107,0
        </coordinates>
         </Point>
      </Placemark>
      <Placemark>
         <name>赵方庄</name>
         <styleUrl>#icon-1739-000000-nodesc</styleUrl>
         <Point>
            <coordinates>
          115.7139301,33.6014663,0
        </coordinates>
         </Point>
      </Placemark>
      <Placemark>
         <name>前武庄</name>
         <styleUrl>#icon-1739-000000-nodesc</styleUrl>
         <Point>
            <coordinates>
          115.7188225,33.6239824,0
        </coordinates>
         </Point>
      </Placemark>
      <Placemark>
         <name>后武庄</name>
         <styleUrl>#icon-1739-000000-nodesc</styleUrl>
         <Point>
            <coordinates>
          115.7161617,33.6256262,0
        </coordinates>
         </Point>
      </Placemark>
      <Placemark>
         <name>后程庄
</name>
         <styleUrl>#icon-1739-000000-nodesc</styleUrl>
         <Point>
            <coordinates>
          115.6474113,33.7383304,0
        </coordinates>
         </Point>
      </Placemark>
      <Placemark>
         <name>门庄</name>
         <styleUrl>#icon-1739-000000-nodesc</styleUrl>
         <Point>
            <coordinates>
          115.6129074,33.8341338,0
        </coordinates>
         </Point>
      </Placemark>
      <Placemark>
         <name>高庄</name>
         <styleUrl>#icon-1739-000000-nodesc</styleUrl>
         <Point>
            <coordinates>
          115.6035519,33.7972661,0
        </coordinates>
         </Point>
      </Placemark>
      <Placemark>
         <name>闻庄村</name>
         <styleUrl>#icon-1739-000000-nodesc</styleUrl>
         <Point>
            <coordinates>
          115.638957,33.7818583,0
        </coordinates>
         </Point>
      </Placemark>
      <Placemark>
         <name>大刘庄</name>
         <styleUrl>#icon-1739-000000-nodesc</styleUrl>
         <Point>
            <coordinates>
          115.6585693,33.7778632,0
        </coordinates>
         </Point>
      </Placemark>
      <Placemark>
         <name>武庄村</name>
         <styleUrl>#icon-1739-000000-nodesc</styleUrl>
         <Point>
            <coordinates>
          115.6444073,33.774296,0
        </coordinates>
         </Point>
      </Placemark>
      <Placemark>
         <name>杨锁庄</name>
         <styleUrl>#icon-1739-000000-nodesc</styleUrl>
         <Point>
            <coordinates>
          115.6650925,33.7959822,0
        </coordinates>
         </Point>
      </Placemark>
      <Placemark>
         <name>杨张庄</name>
         <styleUrl>#icon-1739-000000-nodesc</styleUrl>
         <Point>
            <coordinates>
          115.6553936,33.8090341,0
        </coordinates>
         </Point>
      </Placemark>
      <Placemark>
         <name>中李庄</name>
         <styleUrl>#icon-1739-000000-nodesc</styleUrl>
         <Point>
            <coordinates>
          115.6443214,33.8095334,0
        </coordinates>
         </Point>
      </Placemark>
      <Placemark>
         <name>兵部杨庄</name>
         <styleUrl>#icon-1739-000000-nodesc</styleUrl>
         <Point>
            <coordinates>
          115.6665516,33.8101039,0
        </coordinates>
         </Point>
      </Placemark>
      <Placemark>
         <name>孟庄</name>
         <styleUrl>#icon-1739-000000-nodesc</styleUrl>
         <Point>
            <coordinates>
          115.6505013,33.814454,0
        </coordinates>
         </Point>
      </Placemark>
      <Placemark>
         <name>后王庄</name>
         <styleUrl>#icon-1739-000000-nodesc</styleUrl>
         <Point>
            <coordinates>
          115.6440639,33.8232249,0
        </coordinates>
         </Point>
      </Placemark>
      <Placemark>
         <name>张八庄</name>
         <styleUrl>#icon-1739-000000-nodesc</styleUrl>
         <Point>
            <coordinates>
          115.6373692,33.8247936,0
        </coordinates>
         </Point>
      </Placemark>
      <Placemark>
         <name>贾庄</name>
         <styleUrl>#icon-1739-000000-nodesc</styleUrl>
         <Point>
            <coordinates>
          115.597887,33.6720685,0
        </coordinates>
         </Point>
      </Placemark>
      <Placemark>
         <name>小魏庄</name>
         <styleUrl>#icon-1739-000000-nodesc</styleUrl>
         <Point>
            <coordinates>
          115.6033802,33.6704256,0
        </coordinates>
         </Point>
      </Placemark>
      <Placemark>
         <name>魏庄村</name>
         <styleUrl>#icon-1739-000000-nodesc</styleUrl>
         <Point>
            <coordinates>
          115.6050968,33.6684255,0
        </coordinates>
         </Point>
      </Placemark>
      <Placemark>
         <name>蔺庄</name>
         <styleUrl>#icon-1739-000000-nodesc</styleUrl>
         <Point>
            <coordinates>
          115.603466,33.6626392,0
        </coordinates>
         </Point>
      </Placemark>
      <Placemark>
         <name>张李庄</name>
         <styleUrl>#icon-1739-000000-nodesc</styleUrl>
         <Point>
            <coordinates>
          115.6088734,33.6765685,0
        </coordinates>
         </Point>
      </Placemark>
      <Placemark>
         <name>小华庄</name>
         <styleUrl>#icon-1739-000000-nodesc</styleUrl>
         <Point>
            <coordinates>
          115.6218338,33.6556379,0
        </coordinates>
         </Point>
      </Placemark>
      <Placemark>
         <name>张宋庄
</name>
         <styleUrl>#icon-1739-000000-nodesc</styleUrl>
         <Point>
            <coordinates>
          115.6274986,33.6571383,0
        </coordinates>
         </Point>
      </Placemark>
      <Placemark>
         <name>前孙庄</name>
         <styleUrl>#icon-1739-000000-nodesc</styleUrl>
         <Point>
            <coordinates>
          115.6291294,33.6721399,0
        </coordinates>
         </Point>
      </Placemark>
      <Placemark>
         <name>后孙庄</name>
         <styleUrl>#icon-1739-000000-nodesc</styleUrl>
         <Point>
            <coordinates>
          115.6315327,33.6732828,0
        </coordinates>
         </Point>
      </Placemark>
      <Placemark>
         <name>小卞庄</name>
         <styleUrl>#icon-1739-000000-nodesc</styleUrl>
         <Point>
            <coordinates>
          115.6458664,33.6817111,0
        </coordinates>
         </Point>
      </Placemark>
      <Placemark>
         <name>张大柿树庄
</name>
         <styleUrl>#icon-1739-000000-nodesc</styleUrl>
         <Point>
            <coordinates>
          115.6578827,33.6979938,0
        </coordinates>
         </Point>
      </Placemark>
      <Placemark>
         <name>王蒿庄
</name>
         <styleUrl>#icon-1739-000000-nodesc</styleUrl>
         <Point>
            <coordinates>
          115.6283569,33.727552,0
        </coordinates>
         </Point>
      </Placemark>
      <Placemark>
         <name>五门程庄
</name>
         <styleUrl>#icon-1739-000000-nodesc</styleUrl>
         <Point>
            <coordinates>
          115.6413174,33.7297649,0
        </coordinates>
         </Point>
      </Placemark>
      <Placemark>
         <name>小田庄</name>
         <styleUrl>#icon-1739-000000-nodesc</styleUrl>
         <Point>
            <coordinates>
          115.6371117,33.7408998,0
        </coordinates>
         </Point>
      </Placemark>
      <Placemark>
         <name>小靳庄</name>
         <styleUrl>#icon-1739-000000-nodesc</styleUrl>
         <Point>
            <coordinates>
          115.6244087,33.7423987,0
        </coordinates>
         </Point>
      </Placemark>
      <Placemark>
         <name>大靳庄</name>
         <styleUrl>#icon-1739-000000-nodesc</styleUrl>
         <Point>
            <coordinates>
          115.6324768,33.7441829,0
        </coordinates>
         </Point>
      </Placemark>
      <Placemark>
         <name>龚庄村</name>
         <styleUrl>#icon-1739-000000-nodesc</styleUrl>
         <Point>
            <coordinates>
          115.6418324,33.753746,0
        </coordinates>
         </Point>
      </Placemark>
      <Placemark>
         <name>小程庄</name>
         <styleUrl>#icon-1739-000000-nodesc</styleUrl>
         <Point>
            <coordinates>
          115.6679249,33.7391155,0
        </coordinates>
         </Point>
      </Placemark>
      <Placemark>
         <name>香木庄</name>
         <styleUrl>#icon-1739-000000-nodesc</styleUrl>
         <Point>
            <coordinates>
          115.675478,33.7341191,0
        </coordinates>
         </Point>
      </Placemark>
      <Placemark>
         <name>华寺庄</name>
         <styleUrl>#icon-1739-000000-nodesc</styleUrl>
         <Point>
            <coordinates>
          115.6772804,33.7273379,0
        </coordinates>
         </Point>
      </Placemark>
      <Placemark>
         <name>孙小庄</name>
         <styleUrl>#icon-1739-000000-nodesc</styleUrl>
         <Point>
            <coordinates>
          115.7987309,33.6714971,0
        </coordinates>
         </Point>
      </Placemark>
      <Placemark>
         <name>修常庄
</name>
         <styleUrl>#icon-1739-000000-nodesc</styleUrl>
         <Point>
            <coordinates>
          115.7877445,33.6639965,0
        </coordinates>
         </Point>
      </Placemark>
      <Placemark>
         <name>胡大庄
</name>
         <styleUrl>#icon-1739-000000-nodesc</styleUrl>
         <Point>
            <coordinates>
          115.7710934,33.6761399,0
        </coordinates>
         </Point>
      </Placemark>
      <Placemark>
         <name>中梁庄
</name>
         <styleUrl>#icon-1739-000000-nodesc</styleUrl>
         <Point>
            <coordinates>
          115.7595921,33.6777113,0
        </coordinates>
         </Point>
      </Placemark>
      <Placemark>
         <name>梁大庄
</name>
         <styleUrl>#icon-1739-000000-nodesc</styleUrl>
         <Point>
            <coordinates>
          115.7591629,33.6759257,0
        </coordinates>
         </Point>
      </Placemark>
      <Placemark>
         <name>梁小庄</name>
         <styleUrl>#icon-1739-000000-nodesc</styleUrl>
         <Point>
            <coordinates>
          115.7597637,33.6817825,0
        </coordinates>
         </Point>
      </Placemark>
      <Placemark>
         <name>冯心庄</name>
         <styleUrl>#icon-1739-000000-nodesc</styleUrl>
         <Point>
            <coordinates>
          115.7933235,33.6552093,0
        </coordinates>
         </Point>
      </Placemark>
      <Placemark>
         <name>北张庄</name>
         <styleUrl>#icon-1739-000000-nodesc</styleUrl>
         <Point>
            <coordinates>
          115.7743549,33.6572097,0
        </coordinates>
         </Point>
      </Placemark>
      <Placemark>
         <name>孙烟庄</name>
         <styleUrl>#icon-1739-000000-nodesc</styleUrl>
         <Point>
            <coordinates>
          115.7873154,33.661639,0
        </coordinates>
         </Point>
      </Placemark>
      <Placemark>
         <name>孙小庄</name>
         <styleUrl>#icon-1739-000000-nodesc</styleUrl>
         <Point>
            <coordinates>
          115.7787323,33.6549235,0
        </coordinates>
         </Point>
      </Placemark>
      <Placemark>
         <name>赵庄</name>
         <styleUrl>#icon-1739-000000-nodesc</styleUrl>
         <Point>
            <coordinates>
          115.7792473,33.6517084,0
        </coordinates>
         </Point>
      </Placemark>
      <Placemark>
         <name>大王庄</name>
         <styleUrl>#icon-1739-000000-nodesc</styleUrl>
         <Point>
            <coordinates>
          115.7584763,33.657424,0
        </coordinates>
         </Point>
      </Placemark>
      <Placemark>
         <name>小李庄</name>
         <styleUrl>#icon-1739-000000-nodesc</styleUrl>
         <Point>
            <coordinates>
          115.7924652,33.6492792,0
        </coordinates>
         </Point>
      </Placemark>
      <Placemark>
         <name>南张庄</name>
         <styleUrl>#icon-1739-000000-nodesc</styleUrl>
         <Point>
            <coordinates>
          115.7729816,33.6462068,0
        </coordinates>
         </Point>
      </Placemark>
      <Placemark>
         <name>修小庄
</name>
         <styleUrl>#icon-1739-000000-nodesc</styleUrl>
         <Point>
            <coordinates>
          115.7867146,33.6392042,0
        </coordinates>
         </Point>
      </Placemark>
      <Placemark>
         <name>小冯庄
</name>
         <styleUrl>#icon-1739-000000-nodesc</styleUrl>
         <Point>
            <coordinates>
          115.7867146,33.6310577,0
        </coordinates>
         </Point>
      </Placemark>
      <Placemark>
         <name>任大庄</name>
         <styleUrl>#icon-1739-000000-nodesc</styleUrl>
         <Point>
            <coordinates>
          115.7637119,33.6231248,0
        </coordinates>
         </Point>
      </Placemark>
      <Placemark>
         <name>闫庄村</name>
         <styleUrl>#icon-1739-000000-nodesc</styleUrl>
         <Point>
            <coordinates>
          115.7777023,33.6074712,0
        </coordinates>
         </Point>
      </Placemark>
      <Placemark>
         <name>后马庄
</name>
         <styleUrl>#icon-1739-000000-nodesc</styleUrl>
         <Point>
            <coordinates>
          115.7490349,33.6181216,0
        </coordinates>
         </Point>
      </Placemark>
      <Placemark>
         <name>谢庄
</name>
         <styleUrl>#icon-1739-000000-nodesc</styleUrl>
         <Point>
            <coordinates>
          115.7971859,33.6094012,0
        </coordinates>
         </Point>
      </Placemark>
      <Placemark>
         <name>张吕庄</name>
         <styleUrl>#icon-1739-000000-nodesc</styleUrl>
         <Point>
            <coordinates>
          115.7831955,33.6137616,0
        </coordinates>
         </Point>
      </Placemark>
      <Placemark>
         <name>董吕庄</name>
         <styleUrl>#icon-1739-000000-nodesc</styleUrl>
         <Point>
            <coordinates>
          115.7865429,33.6094727,0
        </coordinates>
         </Point>
      </Placemark>
      <Placemark>
         <name>张小庄</name>
         <styleUrl>#icon-1739-000000-nodesc</styleUrl>
         <Point>
            <coordinates>
          115.77075,33.6185505,0
        </coordinates>
         </Point>
      </Placemark>
      <Placemark>
         <name>任老庄</name>
         <styleUrl>#icon-1739-000000-nodesc</styleUrl>
         <Point>
            <coordinates>
          115.749464,33.6278417,0
        </coordinates>
         </Point>
      </Placemark>
      <Placemark>
         <name>狄庄</name>
         <styleUrl>#icon-1739-000000-nodesc</styleUrl>
         <Point>
            <coordinates>
          115.7268906,33.6183361,0
        </coordinates>
         </Point>
      </Placemark>
      <Placemark>
         <name>龚大庄</name>
         <styleUrl>#icon-1739-000000-nodesc</styleUrl>
         <Point>
            <coordinates>
          115.7111835,33.6126179,0
        </coordinates>
         </Point>
      </Placemark>
      <Placemark>
         <name>祁庄</name>
         <styleUrl>#icon-1739-000000-nodesc</styleUrl>
         <Point>
            <coordinates>
          115.706892,33.6066134,0
        </coordinates>
         </Point>
      </Placemark>
      <Placemark>
         <name>龚小庄
</name>
         <styleUrl>#icon-1739-000000-nodesc</styleUrl>
         <Point>
            <coordinates>
          115.7029438,33.6146908,0
        </coordinates>
         </Point>
      </Placemark>
      <Placemark>
         <name>阎庄村
</name>
         <styleUrl>#icon-1739-000000-nodesc</styleUrl>
         <Point>
            <coordinates>
          115.6868076,33.6014663,0
        </coordinates>
         </Point>
      </Placemark>
      <Placemark>
         <name>小魏庄
</name>
         <styleUrl>#icon-1739-000000-nodesc</styleUrl>
         <Point>
            <coordinates>
          115.6809711,33.6149052,0
        </coordinates>
         </Point>
      </Placemark>
      <Placemark>
         <name>大吴庄</name>
         <styleUrl>#icon-1739-000000-nodesc</styleUrl>
         <Point>
            <coordinates>
          115.6781387,33.6080431,0
        </coordinates>
         </Point>
      </Placemark>
      <Placemark>
         <name>司庄</name>
         <styleUrl>#icon-1739-000000-nodesc</styleUrl>
         <Point>
            <coordinates>
          115.6937599,33.6073997,0
        </coordinates>
         </Point>
      </Placemark>
      <Placemark>
         <name>大魏庄</name>
         <styleUrl>#icon-1739-000000-nodesc</styleUrl>
         <Point>
            <coordinates>
          115.6736755,33.6175498,0
        </coordinates>
         </Point>
      </Placemark>
      <Placemark>
         <name>江庄</name>
         <styleUrl>#icon-1739-000000-nodesc</styleUrl>
         <Point>
            <coordinates>
          115.685606,33.6166207,0
        </coordinates>
         </Point>
      </Placemark>
      <Placemark>
         <name>董王庄</name>
         <styleUrl>#icon-1739-000000-nodesc</styleUrl>
         <Point>
            <coordinates>
          115.653677,33.6200515,0
        </coordinates>
         </Point>
      </Placemark>
      <Placemark>
         <name>纪马庄</name>
         <styleUrl>#icon-1739-000000-nodesc</styleUrl>
         <Point>
            <coordinates>
          115.6495571,33.6191938,0
        </coordinates>
         </Point>
      </Placemark>
      <Placemark>
         <name>小范庄</name>
         <styleUrl>#icon-1739-000000-nodesc</styleUrl>
         <Point>
            <coordinates>
          115.6856918,33.6209091,0
        </coordinates>
         </Point>
      </Placemark>
      <Placemark>
         <name>鱼行庄
</name>
         <styleUrl>#icon-1739-000000-nodesc</styleUrl>
         <Point>
            <coordinates>
          115.6633759,33.6311291,0
        </coordinates>
         </Point>
      </Placemark>
      <Placemark>
         <name>雷王庄</name>
         <styleUrl>#icon-1739-000000-nodesc</styleUrl>
         <Point>
            <coordinates>
          115.6520462,33.6412765,0
        </coordinates>
         </Point>
      </Placemark>
      <Placemark>
         <name>范杨庄</name>
         <styleUrl>#icon-1739-000000-nodesc</styleUrl>
         <Point>
            <coordinates>
          115.6836319,33.6244112,0
        </coordinates>
         </Point>
      </Placemark>
      <Placemark>
         <name>范官庄村</name>
         <styleUrl>#icon-1739-000000-nodesc</styleUrl>
         <Point>
            <coordinates>
          115.695219,33.6245542,0
        </coordinates>
         </Point>
      </Placemark>
      <Placemark>
         <name>王老庄</name>
         <styleUrl>#icon-1739-000000-nodesc</styleUrl>
         <Point>
            <coordinates>
          115.6801128,33.6373463,0
        </coordinates>
         </Point>
      </Placemark>
      <Placemark>
         <name>杨王庄</name>
         <styleUrl>#icon-1739-000000-nodesc</styleUrl>
         <Point>
            <coordinates>
          115.7001114,33.624983,0
        </coordinates>
         </Point>
      </Placemark>
      <Placemark>
         <name>崔王庄</name>
         <styleUrl>#icon-1739-000000-nodesc</styleUrl>
         <Point>
            <coordinates>
          115.6989098,33.6176928,0
        </coordinates>
         </Point>
      </Placemark>
      <Placemark>
         <name>申庄
</name>
         <styleUrl>#icon-1739-000000-nodesc</styleUrl>
         <Point>
            <coordinates>
          115.6502438,33.6571383,0
        </coordinates>
         </Point>
      </Placemark>
      <Placemark>
         <name>前李庄</name>
         <styleUrl>#icon-1739-000000-nodesc</styleUrl>
         <Point>
            <coordinates>
          115.6631184,33.6511369,0
        </coordinates>
         </Point>
      </Placemark>
      <Placemark>
         <name>傅大庄</name>
         <styleUrl>#icon-1739-000000-nodesc</styleUrl>
         <Point>
            <coordinates>
          115.6119633,33.6474929,0
        </coordinates>
         </Point>
      </Placemark>
      <Placemark>
         <name>谷庄</name>
         <styleUrl>#icon-1739-000000-nodesc</styleUrl>
         <Point>
            <coordinates>
          115.6654358,33.6639965,0
        </coordinates>
         </Point>
      </Placemark>
      <Placemark>
         <name>王尧庄</name>
         <styleUrl>#icon-1739-000000-nodesc</styleUrl>
         <Point>
            <coordinates>
          115.6753063,33.6434916,0
        </coordinates>
         </Point>
      </Placemark>
      <Placemark>
         <name>雷庄</name>
         <styleUrl>#icon-1739-000000-nodesc</styleUrl>
         <Point>
            <coordinates>
          115.6769371,33.6545663,0
        </coordinates>
         </Point>
      </Placemark>
      <Placemark>
         <name>王因庄</name>
         <styleUrl>#icon-1739-000000-nodesc</styleUrl>
         <Point>
            <coordinates>
          115.6789112,33.643706,0
        </coordinates>
         </Point>
      </Placemark>
      <Placemark>
         <name>尹庄村</name>
         <styleUrl>#icon-1739-000000-nodesc</styleUrl>
         <Point>
            <coordinates>
          115.6910133,33.6446349,0
        </coordinates>
         </Point>
      </Placemark>
      <Placemark>
         <name>贾庄村
</name>
         <styleUrl>#icon-1739-000000-nodesc</styleUrl>
         <Point>
            <coordinates>
          115.6819153,33.6546377,0
        </coordinates>
         </Point>
      </Placemark>
      <Placemark>
         <name>大杨庄</name>
         <styleUrl>#icon-1739-000000-nodesc</styleUrl>
         <Point>
            <coordinates>
          115.7980442,33.8969221,0
        </coordinates>
         </Point>
      </Placemark>
      <Placemark>
         <name>西钱庄</name>
         <styleUrl>#icon-1739-000000-nodesc</styleUrl>
         <Point>
            <coordinates>
          115.7985592,33.8949985,0
        </coordinates>
         </Point>
      </Placemark>
      <Placemark>
         <name>鲍庄</name>
         <styleUrl>#icon-1739-000000-nodesc</styleUrl>
         <Point>
            <coordinates>
          115.778389,33.8932174,0
        </coordinates>
         </Point>
      </Placemark>
      <Placemark>
         <name>小南庄</name>
         <styleUrl>#icon-1739-000000-nodesc</styleUrl>
         <Point>
            <coordinates>
          115.7690334,33.8973496,0
        </coordinates>
         </Point>
      </Placemark>
      <Placemark>
         <name>西程庄</name>
         <styleUrl>#icon-1739-000000-nodesc</styleUrl>
         <Point>
            <coordinates>
          115.7632828,33.8972783,0
        </coordinates>
         </Point>
      </Placemark>
      <Placemark>
         <name>张胡庄</name>
         <styleUrl>#icon-1739-000000-nodesc</styleUrl>
         <Point>
            <coordinates>
          115.7726383,33.8944998,0
        </coordinates>
         </Point>
      </Placemark>
      <Placemark>
         <name>西王庄</name>
         <styleUrl>#icon-1739-000000-nodesc</styleUrl>
         <Point>
            <coordinates>
          115.7577038,33.895711,0
        </coordinates>
         </Point>
      </Placemark>
      <Placemark>
         <name>邵庄</name>
         <styleUrl>#icon-1739-000000-nodesc</styleUrl>
         <Point>
            <coordinates>
          115.7628536,33.8887288,0
        </coordinates>
         </Point>
      </Placemark>
      <Placemark>
         <name>耿黄庄</name>
         <styleUrl>#icon-1739-000000-nodesc</styleUrl>
         <Point>
            <coordinates>
          115.7524681,33.8891562,0
        </coordinates>
         </Point>
      </Placemark>
      <Placemark>
         <name>东杨庄</name>
         <styleUrl>#icon-1739-000000-nodesc</styleUrl>
         <Point>
            <coordinates>
          115.7557297,33.8837411,0
        </coordinates>
         </Point>
      </Placemark>
      <Placemark>
         <name>罗张庄</name>
         <styleUrl>#icon-1739-000000-nodesc</styleUrl>
         <Point>
            <coordinates>
          115.7338428,33.7083475,0
        </coordinates>
         </Point>
      </Placemark>
      <Placemark>
         <name>后孙小庄</name>
         <styleUrl>#icon-1739-000000-nodesc</styleUrl>
         <Point>
            <coordinates>
          115.7111835,33.7396865,0
        </coordinates>
         </Point>
      </Placemark>
      <Placemark>
         <name>三里庄</name>
         <styleUrl>#icon-1739-000000-nodesc</styleUrl>
         <Point>
            <coordinates>
          115.7160759,33.7636649,0
        </coordinates>
         </Point>
      </Placemark>
      <Placemark>
         <name>王关庄</name>
         <styleUrl>#icon-1739-000000-nodesc</styleUrl>
         <Point>
            <coordinates>
          115.7148743,33.7682314,0
        </coordinates>
         </Point>
      </Placemark>
      <Placemark>
         <name>小袁庄</name>
         <styleUrl>#icon-1739-000000-nodesc</styleUrl>
         <Point>
            <coordinates>
          115.6916142,33.7768644,0
        </coordinates>
         </Point>
      </Placemark>
      <Placemark>
         <name>石张庄</name>
         <styleUrl>#icon-1739-000000-nodesc</styleUrl>
         <Point>
            <coordinates>
          115.7030296,33.7841411,0
        </coordinates>
         </Point>
      </Placemark>
      <Placemark>
         <name>祁庄</name>
         <styleUrl>#icon-1739-000000-nodesc</styleUrl>
         <Point>
            <coordinates>
          115.6503296,33.8261484,0
        </coordinates>
         </Point>
      </Placemark>
      <Placemark>
         <name>小贾庄
</name>
         <styleUrl>#icon-1739-000000-nodesc</styleUrl>
         <Point>
            <coordinates>
          115.6505013,33.8324227,0
        </coordinates>
         </Point>
      </Placemark>
      <Placemark>
         <name>大卢庄</name>
         <styleUrl>#icon-1739-000000-nodesc</styleUrl>
         <Point>
            <coordinates>
          115.6708431,33.8301412,0
        </coordinates>
         </Point>
      </Placemark>
      <Placemark>
         <name>张新庄
</name>
         <styleUrl>#icon-1739-000000-nodesc</styleUrl>
         <Point>
            <coordinates>
          115.6407166,33.8421186,0
        </coordinates>
         </Point>
      </Placemark>
      <Placemark>
         <name>仝庄</name>
         <styleUrl>#icon-1739-000000-nodesc</styleUrl>
         <Point>
            <coordinates>
          115.6569386,33.8429027,0
        </coordinates>
         </Point>
      </Placemark>
      <Placemark>
         <name>夏庄村</name>
         <styleUrl>#icon-1739-000000-nodesc</styleUrl>
         <Point>
            <coordinates>
          115.6548786,33.8475363,0
        </coordinates>
         </Point>
      </Placemark>
      <Placemark>
         <name>南杨庄</name>
         <styleUrl>#icon-1739-000000-nodesc</styleUrl>
         <Point>
            <coordinates>
          115.6665516,33.8553773,0
        </coordinates>
         </Point>
      </Placemark>
      <Placemark>
         <name>柯针吴庄</name>
         <styleUrl>#icon-1739-000000-nodesc</styleUrl>
         <Point>
            <coordinates>
          115.6701565,33.8448988,0
        </coordinates>
         </Point>
      </Placemark>
      <Placemark>
         <name>老王庄</name>
         <styleUrl>#icon-1739-000000-nodesc</styleUrl>
         <Point>
            <coordinates>
          115.6879234,33.8600102,0
        </coordinates>
         </Point>
      </Placemark>
      <Placemark>
         <name>周庄村</name>
         <styleUrl>#icon-1739-000000-nodesc</styleUrl>
         <Point>
            <coordinates>
          115.6839752,33.8657832,0
        </coordinates>
         </Point>
      </Placemark>
      <Placemark>
         <name>烟李庄
</name>
         <styleUrl>#icon-1739-000000-nodesc</styleUrl>
         <Point>
            <coordinates>
          115.6982231,33.8511005,0
        </coordinates>
         </Point>
      </Placemark>
      <Placemark>
         <name>筛子吴庄
</name>
         <styleUrl>#icon-1739-000000-nodesc</styleUrl>
         <Point>
            <coordinates>
          115.6870651,33.8468235,0
        </coordinates>
         </Point>
      </Placemark>
      <Placemark>
         <name>小卢庄</name>
         <styleUrl>#icon-1739-000000-nodesc</styleUrl>
         <Point>
            <coordinates>
          115.6729031,33.8367004,0
        </coordinates>
         </Point>
      </Placemark>
      <Placemark>
         <name>大仵庄</name>
         <styleUrl>#icon-1739-000000-nodesc</styleUrl>
         <Point>
            <coordinates>
          115.6745338,33.8347755,0
        </coordinates>
         </Point>
      </Placemark>
      <Placemark>
         <name>郑庄村
</name>
         <styleUrl>#icon-1739-000000-nodesc</styleUrl>
         <Point>
            <coordinates>
          115.6915283,33.8466096,0
        </coordinates>
         </Point>
      </Placemark>
      <Placemark>
         <name>小孟庄</name>
         <styleUrl>#icon-1739-000000-nodesc</styleUrl>
         <Point>
            <coordinates>
          115.6892109,33.8371995,0
        </coordinates>
         </Point>
      </Placemark>
      <Placemark>
         <name>颜方庄</name>
         <styleUrl>#icon-1739-000000-nodesc</styleUrl>
         <Point>
            <coordinates>
          115.6977081,33.8370569,0
        </coordinates>
         </Point>
      </Placemark>
      <Placemark>
         <name>邱庄村
</name>
         <styleUrl>#icon-1739-000000-nodesc</styleUrl>
         <Point>
            <coordinates>
          115.7139301,33.8570166,0
        </coordinates>
         </Point>
      </Placemark>
      <Placemark>
         <name>洪庄村</name>
         <styleUrl>#icon-1739-000000-nodesc</styleUrl>
         <Point>
            <coordinates>
          115.7102394,33.8595113,0
        </coordinates>
         </Point>
      </Placemark>
      <Placemark>
         <name>小夏庄</name>
         <styleUrl>#icon-1739-000000-nodesc</styleUrl>
         <Point>
            <coordinates>
          115.729208,33.8601527,0
        </coordinates>
         </Point>
      </Placemark>
      <Placemark>
         <name>时庄</name>
         <styleUrl>#icon-1739-000000-nodesc</styleUrl>
         <Point>
            <coordinates>
          115.7387352,33.8785394,0
        </coordinates>
         </Point>
      </Placemark>
      <Placemark>
         <name>前马庄</name>
         <styleUrl>#icon-1739-000000-nodesc</styleUrl>
         <Point>
            <coordinates>
          115.7362461,33.8802496,0
        </coordinates>
         </Point>
      </Placemark>